STAID_edt,STANAME,DRAIN_SQKM,LAT_GAGE,LNG_GAGE,locname,NOAA_ID,NOAA_NAME,NEAR_Y,NEAR_X,NEAR_DIST,DAM_NAME,NIDID,LONGITUDE,LATITUDE,RIVER,DISTANCE,PRIVATE_DA,DAM_TYPE,CORE,FOUNDATION,PURPOSES,YEAR_COMPL,YEAR_MODIF,DAM_LENGTH,DAM_HEIGHT,STRUCTURAL,HYDRAULIC_,NID_HEIGHT,MAX_DISCHA,MAX_STORAG,NORMAL_STO,NID_STORAG,SURFACE_AR,DRAINAGE_A,HAZARD,EAP,VOLUME,Distance_1,FID_2,NA_L2CODE,NA_L2NAME,NA_L1CODE,NA_L1NAME,NA_L2KEY,NA_L1KEY
STAID09306007,"PICEANCE CREEK BELOW RIO BLANCO, CO.",459.7,39.826085,-108.183138,9306007,USW00003096,RIFLE 23 NW,39.7608,-108.1267,8.714882156,WEST STEWART,CO02570,-108.20056,39.758329,W. FORK STEWART GULCH,30,N,RE,X,U,IP,1895, ,300,22,22,22,22,288,65,40,65,6,10,L,NR,0,7653.176667,59,10.1,COLD DESERTS,10,NORTH AMERICAN DESERTS,10.1  COLD DESERTS,10  NORTH AMERICAN DESERTS
STAID10313400,"MARYS RV BLW ORANGE BRG NR CHARLESTON, NV",184.2,41.549913,-115.306729,10313400,USC00267848,STOFIEL,41.5,-115.3333,5.974626888,GIBBS RANCH DAM,NV10410,-115.1897,41.57,HOT CREEK,26,Y,RE,IEK,RSK,CIR,1997, ,625,40,40,46,46,325,520,400,520,18,7,H,Y,0,9438.550239,59,10.1,COLD DESERTS,10,NORTH AMERICAN DESERTS,10.1  COLD DESERTS,10  NORTH AMERICAN DESERTS
STAID10396000,DONNER UND BLITZEN RIVER NR FRENCHGLEN OR,528.9,42.790833,-118.8675,10396000,USC00356853,P-RANCH SOUTH PLACE,42.8081,-118.8778,2.095854274,FRAZIER SEEDING RESERVOIR (BLM),OR01764,-118.8482285,42.81483078,"DONNER AND BLITZEN RIVER, TRIB",0,N,RE, , ,FP,0, ,0,25,0,0,25,0,0,22,22,3,0,L,NR,100,3049.512402,59,10.1,COLD DESERTS,10,NORTH AMERICAN DESERTS,10.1  COLD DESERTS,10  NORTH AMERICAN DESERTS
STAID09144250,"GUNNISON RIVER AT DELTA, CO.",14613.8,38.753039,-108.078403,9144250,USC00052192,DELTA,38.7531,-108.0783,0.011215291,GARNET MESA,CO00747,-108.04056,38.714999,UNCOMPAHGRE RIVER-TR,2,N,RE,IEK,SK,FR,1954, ,659,39,41,39,41,2200,1980,1333,1980,139,8,H,Y,35000,5237.196332,59,10.1,COLD DESERTS,10,NORTH AMERICAN DESERTS,10.1  COLD DESERTS,10  NORTH AMERICAN DESERTS
STAID09149500,"UNCOMPAHGRE RIVER AT DELTA, CO.",2899.5,38.741928,-108.080903,9149500,USC00052192,DELTA,38.7531,-108.0783,1.262613033,GARNET MESA,CO00747,-108.04056,38.714999,UNCOMPAHGRE RIVER-TR,2,N,RE,IEK,SK,FR,1954, ,659,39,41,39,41,2200,1980,1333,1980,139,8,H,Y,35000,4454.334149,59,10.1,COLD DESERTS,10,NORTH AMERICAN DESERTS,10.1  COLD DESERTS,10  NORTH AMERICAN DESERTS
STAID09306290,"WHITE RIVER BELOW BOISE CREEK, NEAR RANGELY, CO.",6559.3,40.179693,-108.565377,9306290,USC00055420,MASSADONA,40.2528,-108.6406,10.33821641,DIVIDE CREEK,CO01270,-108.568658,40.225074,WOLF CREEK-TR,27,Y,RE,X,U,C,1958, ,750,34,34,34,34,850,247,100,247,25,3,L,NR,0,5045.137595,59,10.1,COLD DESERTS,10,NORTH AMERICAN DESERTS,10.1  COLD DESERTS,10  NORTH AMERICAN DESERTS
STAID13081500,SNAKE R NR MINIDOKA ID (AT HOWELLS FERRY),48830.4,42.672778,-113.500278,13081500,USC00105980,MINIDOKA DAM,42.6769,-113.5022,0.484530202,MINIDOKA,ID00275,-113.4842,42.6691,SNAKE RIVER  COLUMBIA RIVER,6,N,RE,E,R,FHRS,1906, ,670,88,86,74,88,40552,220200,210200,220200,11850,15625,H,Y,257300,1304.828274,59,10.1,COLD DESERTS,10,NORTH AMERICAN DESERTS,10.1  COLD DESERTS,10  NORTH AMERICAN DESERTS
STAID13206000,BOISE RIVER AT GLENWOOD BRIDGE NR BOISE ID,7182.2,43.660556,-116.279167,13206000,USR0000INFK,NORTH FORK (PORTABLE) IDAHO,43.5994,-116.2081,8.885882484,HIDDEN SPRINGS CELL 3A,ID00695,-116.2608821,43.71362174,UNNAMED STREAM,0,N,RE,E,S, ,2007, ,0,42,0,40,42,0,0,81,81,3,0,S,Y,0,6056.062271,59,10.1,COLD DESERTS,10,NORTH AMERICAN DESERTS,10.1  COLD DESERTS,10  NORTH AMERICAN DESERTS
STAID13060000,SNAKE RIVER NR SHELLEY ID,26343,43.413056,-112.135,13060000,USW00024145,IDAHO FALLS FANNING FLD,43.5164,-112.0672,12.7275773,GEM STATE,ID83006,-112.102,43.4219,SNAKE RIVER,5,N,CNERPG, , ,HI,1988, ,1136,40,40,35,40,140000,6700,5000,6700,305,4650,H,Y,0,2696.975835,59,10.1,COLD DESERTS,10,NORTH AMERICAN DESERTS,10.1  COLD DESERTS,10  NORTH AMERICAN DESERTS
STAID09355500,"SAN JUAN RIVER NEAR ARCHULETA, NM",8372.7,36.801394,-107.698114,9355500,USC00296061,NAVAJO DAM,36.8047,-107.6214,6.840018477,NAVAJO,NM00120,-107.6117,36.8015,SAN JUAN RIVER,25,N,RE,A,RK,CIR,1962, ,3648,402,402,382,402,34000,1986600,1708600,1986600,15610,3190,H,Y,26840900,7274.243034,59,10.1,COLD DESERTS,10,NORTH AMERICAN DESERTS,10.1  COLD DESERTS,10  NORTH AMERICAN DESERTS
STAID09364010,"ANIMAS RIVER BELOW AZTEC, NM",3370.3,36.817861,-108.024444,9364010,USC00290692,AZTEC RUINS NM,36.835,-108.0006,2.8523667,FARMINGTON LAKE DAM,NM00302,-108.103,36.79424,ANIMAS RIVER-OS,2,N,RE,E,U,S,1964,1990,1075,117,0,0,117,1500,8470,6703,8470,198,3,H,Y,0,7111.625532,59,10.1,COLD DESERTS,10,NORTH AMERICAN DESERTS,10.1  COLD DESERTS,10  NORTH AMERICAN DESERTS
STAID09364500,"ANIMAS RIVER AT FARMINGTON, NM",3545.7,36.721392,-108.202018,9364500,USW00023090,FARMINGTON RGNL AP,36.7436,-108.2292,3.45915633,BOLACK NO 1 DAM,NM00368,-108.160606,36.713026,SAN JUAN RIVER - OS,5,N,RE,Z,U,R,1962,2004,3890,20,0,0,20,0,182,170,182,35,0,L,NR,0,3612.252788,59,10.1,COLD DESERTS,10,NORTH AMERICAN DESERTS,10.1  COLD DESERTS,10  NORTH AMERICAN DESERTS
STAID08317400,"RIO GRANDE BELOW COCHITI DAM, NM",37162.6,35.617809,-106.324471,8317400,USC00291982,COCHITI DAM,35.6414,-106.3322,2.714615114,COCHITI LAKE,NM00404,-106.3333,35.625,RIO GRANDE & SANTA FE,2,N,RE,E, ,CRO,1975, ,28300,251,251,246,251,136360,722000,50130,722000,1200,14635,H,Y,65000000,1097.979155,59,10.1,COLD DESERTS,10,NORTH AMERICAN DESERTS,10.1  COLD DESERTS,10  NORTH AMERICAN DESERTS
STAID08329928,"RIO GRANDE NR ALAMEDA, NM",44583.7,35.182,-106.651944,8329928,USC00295140,LOS GRIEGOS,35.1667,-106.6667,2.166367453,PIEDRAS MARCADAS DETENTION DAM,NM00478,-106.67828,35.17423,PIEDRAS MARCADAS ARROYO,0,N,RE,H,S,C,1984,2000,1300,28,34,0,34,28240,649,0,649,50,6,H,N,130000,2426.496463,59,10.1,COLD DESERTS,10,NORTH AMERICAN DESERTS,10.1  COLD DESERTS,10  NORTH AMERICAN DESERTS
STAID09365000,"SAN JUAN RIVER AT FARMINGTON, NM",18634,36.72278,-108.22563,9365000,USW00023090,FARMINGTON RGNL AP,36.7436,-108.2292,2.33683568,MARTIN ARROYO DAM,NM00523,-108.1867,36.7613,MARTIN ARROYO,0,N,RE,Z,U,C,1987, ,215,25,0,0,25,2516,54,0,54,4,1,H,N,0,5387.795202,59,10.1,COLD DESERTS,10,NORTH AMERICAN DESERTS,10.1  COLD DESERTS,10  NORTH AMERICAN DESERTS
STAID08329918,"RIO GRANDE AT ALAMEDA BRIDGE AT ALAMEDA, NM",44372.1,35.19772,-106.64278,8329918,USC00295140,LOS GRIEGOS,35.1667,-106.6667,4.077167827,BLACK ARROYO DETENTION DAM,NM00538,-106.67814,35.21474,BLACK ARROYO,0,N,RE,Z,U,C,1992,2008,3273,26,0,0,26,21428,486,0,486,23,10,H,N,0,3581.926821,59,10.1,COLD DESERTS,10,NORTH AMERICAN DESERTS,10.1  COLD DESERTS,10  NORTH AMERICAN DESERTS
STAID10348000,"TRUCKEE R AT RENO,NV",2723.7,39.530189,-119.795468,10348000,USC00268500,UNIV OF NEVADA EXP FM,39.5167,-119.7833,1.827286118,HIGHLAND RESERVOIR,NV00067,-119.82749,39.54166,TRUCKEE RIVER-OS,0,N,RE,FPK,SK,OS,1996, ,1716,23,23,21,23,128,61,50,61,4,0,H,Y,140000,2883.517823,59,10.1,COLD DESERTS,10,NORTH AMERICAN DESERTS,10.1  COLD DESERTS,10  NORTH AMERICAN DESERTS
STAID10351600,"TRUCKEE R BL DERBY DAM NR WADSWORTH, NV",4132.7,39.584634,-119.441287,10351600,USC00268834,WADSWORTH,39.6333,-119.2833,14.57586538,DERBY DIVERSION,NV10121,-119.4481,39.5859,TRUCKEE RIVER,5,N,CN,A,RK,I,1904, ,1331,31,31,15,31,0,2500,2000,2500,0,0,L,NR,37000,566.7962015,59,10.1,COLD DESERTS,10,NORTH AMERICAN DESERTS,10.1  COLD DESERTS,10  NORTH AMERICAN DESERTS
STAID10335000,"HUMBOLDT RV NR RYE PATCH, NV",41270.7,40.467406,-118.307647,10335000,USC00267192,RYE PATCH DAM,40.4661,-118.3047,0.288514287,RYE PATCH,NV10124,-118.3077,40.4701, ,0,N, , , ,H,0, ,1074,78,0,0,78,0,0,171000,171000,11400,0,H,Y,0,298.558427,59,10.1,COLD DESERTS,10,NORTH AMERICAN DESERTS,10.1  COLD DESERTS,10  NORTH AMERICAN DESERTS
STAID10312275,"CARSON RIVER AT TARZYN ROAD NR FALLON, NV",4814.9,39.558806,-118.725984,10312275,USC00267660,SODA LAKE,39.55,-118.75,2.279952556,SAGOUSPIE DIVERSION DAM,NV10468,-118.7353,39.5403,CARSON RIVER,0,N,RE,HEZ,SK,CI,0, ,300,10,10,7,10,0,100,70,100,10,100,L,NR,0,2188.440283,59,10.1,COLD DESERTS,10,NORTH AMERICAN DESERTS,10.1  COLD DESERTS,10  NORTH AMERICAN DESERTS
STAID10351700,"TRUCKEE R NR NIXON, NV",4479.1,39.777372,-119.337522,10351700,USC00265605,NIXON,39.8333,-119.35,6.30959501,JONES CANYON DAM,NV10490,-119.4036,39.7197,JONES CANYON CREEK,12,Y,RE,HEZ,SZ,IP,0, ,500,43,43,40,43,0,50,30,50,3,6,L,NR,0,8327.28258,59,10.1,COLD DESERTS,10,NORTH AMERICAN DESERTS,10.1  COLD DESERTS,10  NORTH AMERICAN DESERTS
STAID10301500,"WALKER RV NR WABUSKA, NV",7032.1,39.152461,-119.098889,10301500,USC00268820,WABUSKA,39.15,-119.1833,7.283875898,STANLEY RANCH DAM,NV10537,-119.0935,39.1484,WALKER RIVER-OS,28,N,RE,FEK,RSK,IR,1998, ,2060,25,19,22,25,17,70,60,70,6,0,L,NR,50000,629.8190004,59,10.1,COLD DESERTS,10,NORTH AMERICAN DESERTS,10.1  COLD DESERTS,10  NORTH AMERICAN DESERTS
STAID10348200,"TRUCKEE R NR SPARKS, NV",2762.5,39.517617,-119.741644,10348200,USC00267693,SPARKS-HUMANE SOCIETY,39.5236,-119.7386,0.714681524,D'ANDREA DETENSION BASIN #3,NV10819,-119.701,39.551,NORTH TRUCKEE DRAIN-TR,0,N,RE,HEK,SK,C,0, ,1623,11,11,10,11,384,79,0,79,6,2,H,N,4740,4953.116705,59,10.1,COLD DESERTS,10,NORTH AMERICAN DESERTS,10.1  COLD DESERTS,10  NORTH AMERICAN DESERTS
STAID10349980,"STEAMBOAT CK AT CLEANWATER WAY NR RENO, NV",631.9,39.512967,-119.712409,10349980,USC00267693,SPARKS-HUMANE SOCIETY,39.5236,-119.7386,2.538739955,D'ANDREA DETENSION BASIN #3,NV10819,-119.701,39.551,NORTH TRUCKEE DRAIN-TR,0,N,RE,HEK,SK,C,0, ,1623,11,11,10,11,384,79,0,79,6,2,H,N,4740,4321.828009,59,10.1,COLD DESERTS,10,NORTH AMERICAN DESERTS,10.1  COLD DESERTS,10  NORTH AMERICAN DESERTS
STAID10350000,"TRUCKEE R AT VISTA, NV",3697.6,39.520467,-119.70102,10350000,USC00267693,SPARKS-HUMANE SOCIETY,39.5236,-119.7386,3.242140384,D'ANDREA DETENSION BASIN #3,NV10819,-119.701,39.551,NORTH TRUCKEE DRAIN-TR,0,N,RE,HEK,SK,C,0, ,1623,11,11,10,11,384,79,0,79,6,2,H,N,4740,3389.360761,59,10.1,COLD DESERTS,10,NORTH AMERICAN DESERTS,10.1  COLD DESERTS,10  NORTH AMERICAN DESERTS
STAID09326500,"FERRON CREEK (UPPER STATION) NEAR FERRON, UT",358.7,39.104137,-111.216559,9326500,USC00422798,FERRON,39.0875,-111.1325,7.486258037,MILLSITE,UT00212,-111.1891216,39.10181548,FERRON CREEK,0,N,RE,X,U,I,1971,1998,4150,0,115,107,115,480,20000,18000,20000,0,157,H,Y,0,2248.114203,59,10.1,COLD DESERTS,10,NORTH AMERICAN DESERTS,10.1  COLD DESERTS,10  NORTH AMERICAN DESERTS
STAID10168000,LITTLE COTTONWOOD CREEK @ JORDAN RIVER NR SLC,116.9,40.663836,-111.90188,10168000,USC00425963,MURRAY,40.65,-111.9,1.546645015,SALT LAKE CO-CREEKSIDE PARK (BIG CTTNWD),UT00531,-111.8491023,40.66851749,BIG COTTONWOOD CREEK,0, ,RE,X,U,C,1969, ,1400,0,16,11,16,0,0,90,90,0,53,H,Y,0,4226.16577,59,10.1,COLD DESERTS,10,NORTH AMERICAN DESERTS,10.1  COLD DESERTS,10  NORTH AMERICAN DESERTS
STAID09302000,"DUCHESNE RIVER NEAR RANDLETT, UT",9771.9,40.215517,-109.783476,9302000,USC00422996,FT DUCHESNE,40.2842,-109.8611,10.08591084,"COOK, RAYMOND & PATRICIA",UT53232,-109.783537,40.23138521, ,0, ,RE,X,U,P,0, ,420,0,7,2,7,5,0,17,17,0,0,S,N,0,1761.312007,59,10.1,COLD DESERTS,10,NORTH AMERICAN DESERTS,10.1  COLD DESERTS,10  NORTH AMERICAN DESERTS
STAID10038000,"BEAR RIVER BLW SMITHS FORK, NR COKEVILLE, WY",6335.6,42.126602,-110.973243,10038000,USC00480915,BORDER 3 N,42.2128,-111.0456,11.28837485,BRANNAN NO. 2,WY01223,-111.0388889,42.1569,BEAR CREEK,0,Y,RE,HEK,SZ,IOP,1937, ,2585,8,8,4,8,0,401,375,401,111,0,L,NR,8000,6106.901706,59,10.1,COLD DESERTS,10,NORTH AMERICAN DESERTS,10.1  COLD DESERTS,10  NORTH AMERICAN DESERTS
STAID06227600,"WIND RIVER NEAR KINNEAR, WY",5690.2,43.143847,-108.707895,6227600,USC00486470,MORTON 1 NW,43.2167,-108.7833,10.14922786,PILOT BUTTE,WY01381,-108.7559,43.1955,WYOMING CANAL,25,N,RE,ICK,SZ,I,1925, ,1300,64,64,55,64,500,36900,33700,36900,900,9,H,Y,199000,6809.076348,59,10.1,COLD DESERTS,10,NORTH AMERICAN DESERTS,10.1  COLD DESERTS,10  NORTH AMERICAN DESERTS
STAID14034500,"WILLOW CREEK AT HEPPNER, OREG.",251.8,45.350406,-119.550022,14034500,USC00353827,HEPPNER,45.3653,-119.5639,1.979543882,WILLOW CREEK,OR00746,-119.545,45.351669,WILLOW CREEK,1,N, ,C,R,CIRO,1982, ,1780,159,160,158,160,91700,14091,4326,14091,269,96,H,Y,403000,396.7059047,62,10.1,COLD DESERTS,10,NORTH AMERICAN DESERTS,10.1  COLD DESERTS,10  NORTH AMERICAN DESERTS
STAID12462500,"WENATCHEE RIVER AT MONITOR, WA",3372.3,47.499291,-120.424522,12462500,USC00451164,CASHMERE,47.5333,-120.4667,4.932940129,ROCKY REACH,WA00086,-120.3133,47.5483,COLUMBIA RIVER,6,N,PG,HCZ,RZ,CH,1962, ,3820,118,130,112,130,1200000,390000,382000,390000,9810,87800,H,Y,1049000,9601.190609,62,10.1,COLD DESERTS,10,NORTH AMERICAN DESERTS,10.1  COLD DESERTS,10  NORTH AMERICAN DESERTS
STAID09419507,"MUDDY RV AT LEWIS AVENUE AT OVERTON, NV",18640.6,36.535278,-114.428333,9419507,USC00265846,OVERTON,36.5508,-114.4581,3.170253909,HONEYBEE DAM,NV10134,-114.42,36.52833,MUDDY RIVER-OS,0,Y,RE,HEK,SK,FI,1956,2001S,2470,10,10,9,10,150,439,400,439,36,1,S,Y,36000,1045.256785,88,10.2,WARM DESERTS,10,NORTH AMERICAN DESERTS,10.2  WARM DESERTS,10  NORTH AMERICAN DESERTS
STAID09419800,LV WASH BLW LAKE LAS VEGAS NR BOULDER CITY NV,4935.8,36.122198,-114.904992,9419800,USC00260125,ALAN BIBLE VISITOR CTR,36.01,-114.7964,15.84032157,LAKE LAS VEGAS,NV10153,-114.9097,36.1197,LAS VEGAS WASH,0,N,RE,IEK,RSK,R,1991,1997O;1998H,4208,133,165,123,165,90700,10600,9960,10600,320,140,S,Y,2550000,486.3082877,88,10.2,WARM DESERTS,10,NORTH AMERICAN DESERTS,10.2  WARM DESERTS,10  NORTH AMERICAN DESERTS
STAID09419700,"LAS VEGAS WASH AT PABCO RD NR HENDERSON, NV",4732.2,36.087475,-114.985828,9419700,USC00267925,SUNRISE MANOR LAS VEGA,36.2,-115.0833,15.26959075,POND GW-11,NV10797,-115.0054,36.0514,LAS VEGAS WASH-OS,0,N,RE,FPK,SK,O,1998, ,3266,23,23,20,23,1,114,50,114,17,0,L,NR,10900,4335.455315,88,10.2,WARM DESERTS,10,NORTH AMERICAN DESERTS,10.2  WARM DESERTS,10  NORTH AMERICAN DESERTS
STAID094196783,"LV WASH BLW FLAMINGO WASH CONFL NR LAS VEGAS, NV",2640.6,36.1397,-115.04778,94196783,USC00267925,SUNRISE MANOR LAS VEGA,36.2,-115.0833,7.424543866,ORCHARD DETENTION BASIN,NV10809,-115.019,36.154,LAS VEGAS WASH-OS,0,Y,RE,HEK,SK,C,0, ,1447,30,32,24,32,12300,266,0,266,7,3,H,Y,63000,2915.58814,88,10.2,WARM DESERTS,10,NORTH AMERICAN DESERTS,10.2  WARM DESERTS,10  NORTH AMERICAN DESERTS
STAID09406100,"VIRGIN RIVER AB LAVERKIN CREEK NR LAVERKIN, UTAH",2541.4,37.196927,-113.285226,9406100,USC00424150,HURRICANE,37.1833,-113.2833,1.524827747,QUAIL CREEK DIVERSION,UT00515,-113.2341663,37.20114737,VIRGIN RIVER,0, ,PG,X,U,I,1984, ,95,0,73,53,73,0,0,295,295,0,1000,L,NR,0,4299.34723,88,10.2,WARM DESERTS,10,NORTH AMERICAN DESERTS,10.2  WARM DESERTS,10  NORTH AMERICAN DESERTS
STAID11172945,ALAMEDA C AB DIV DAM NR SUNOL CA,87.1,37.497436,-121.773564,11172945,USR0000CRSP,ROSE PEAK CALIFORNIA,37.5019,-121.7355,3.394391138,CALAVERAS,CA00126,-121.8185,37.4929,CALAVERAS CREEK,7,N,RE,X,S,S,1925, ,1200,210,0,188,210,0,0,100000,100000,1450,98,H,Y,3461000,3776.848249,110,11.1,MEDITERRANEAN CALIFORNIA,11,MEDITERRANEAN CALIFORNIA,11.1  MEDITERRANEAN CALIFORNIA,11  MEDITERRANEAN CALIFORNIA
STAID11173200,ARROYO HONDO NR SAN JOSE CA,199.1,37.461603,-121.769397,11173200,USR0000CPOV,POVERTY CALIFORNIA,37.4431,-121.7706,2.060178414,CALAVERAS,CA00126,-121.8185,37.4929,CALAVERAS CREEK,7,N,RE,X,S,S,1925, ,1200,210,0,188,210,0,0,100000,100000,1450,98,H,Y,3461000,5366.640501,110,11.1,MEDITERRANEAN CALIFORNIA,11,MEDITERRANEAN CALIFORNIA,11.1  MEDITERRANEAN CALIFORNIA,11  MEDITERRANEAN CALIFORNIA
STAID11204100,SF TULE R NR RESERVATION BNDRY NR PORTERVILLE CA,249.1,36.024116,-118.813426,11204100,USR0000CFOU,FOUNTAIN SPRINGS CALIFORNIA,35.8922,-118.915,17.2841891,LARSON,CA00712,-118.8494,36.0346,TR S TULE RIVER,8,N,RE,X,R,OS,1963, ,650,54,0,52,54,0,0,325,325,21,1,S,N,73500,3274.13892,110,11.1,MEDITERRANEAN CALIFORNIA,11,MEDITERRANEAN CALIFORNIA,11.1  MEDITERRANEAN CALIFORNIA,11  MEDITERRANEAN CALIFORNIA
STAID11458500,SONOMA C A AGUA CALIENTE CA,150.4,38.323247,-122.494426,11458500,USC00048351,SONOMA,38.2994,-122.4622,3.864842127,FERN LAKE,CA00007,-122.5311,38.3431,TR MILL CREEK,5,N,RE,X,S,S,1921, ,300,40,0,36,40,0,0,241,241,14,0,H,Y,0,3735.932738,110,11.1,MEDITERRANEAN CALIFORNIA,11,MEDITERRANEAN CALIFORNIA,11.1  MEDITERRANEAN CALIFORNIA,11  MEDITERRANEAN CALIFORNIA
STAID11176500,ARROYO VALLE NR LIVERMORE CA,381.6,37.623265,-121.758842,11176500,USC00044997,LIVERMORE,37.6922,-121.7692,7.719264324,DEL VALLE,CA00043,-121.745,37.6157,ARROYO VALLE,6,N,RE,X,R,CRS,1968, ,880,222,0,194,222,47000,0,77100,77100,710,146,H,Y,4200000,1426.108594,110,11.1,MEDITERRANEAN CALIFORNIA,11,MEDITERRANEAN CALIFORNIA,11.1  MEDITERRANEAN CALIFORNIA,11  MEDITERRANEAN CALIFORNIA
STAID11173500,CALAVERAS C NR SUNOL CA,255.2,37.497714,-121.817733,11173500,USR0000CCLV,CALAVERAS ROAD CALIFORNIA,37.5531,-121.8439,6.576763757,CALAVERAS,CA00126,-121.8185,37.4929,CALAVERAS CREEK,7,N,RE,X,S,S,1925, ,1200,210,0,188,210,0,0,100000,100000,1450,98,H,Y,3461000,538.5184954,110,11.1,MEDITERRANEAN CALIFORNIA,11,MEDITERRANEAN CALIFORNIA,11.1  MEDITERRANEAN CALIFORNIA,11  MEDITERRANEAN CALIFORNIA
STAID11173510,ALAMEDA C BL CALAVERAS C NR SUNOL CA,360.7,37.503547,-121.824677,11173510,USR0000CCLV,CALAVERAS ROAD CALIFORNIA,37.5531,-121.8439,5.764902074,CALAVERAS,CA00126,-121.8185,37.4929,CALAVERAS CREEK,7,N,RE,X,S,S,1925, ,1200,210,0,188,210,0,0,100000,100000,1450,98,H,Y,3461000,1289.830751,110,11.1,MEDITERRANEAN CALIFORNIA,11,MEDITERRANEAN CALIFORNIA,11.1  MEDITERRANEAN CALIFORNIA,11  MEDITERRANEAN CALIFORNIA
STAID11173575,ALAMEDA C BL WELCH C NR SUNOL CA,385.4,37.540491,-121.856345,11173575,USR0000CCLV,CALAVERAS ROAD CALIFORNIA,37.5531,-121.8439,1.78032201,JAMES H TURNER,CA00132,-121.8462,37.5759,SAN ANTONIO CREEK,3,N,RE,X,RS,S,1964, ,2160,193,0,175,193,0,0,50500,50500,825,40,H,Y,3240000,4019.385493,110,11.1,MEDITERRANEAN CALIFORNIA,11,MEDITERRANEAN CALIFORNIA,11.1  MEDITERRANEAN CALIFORNIA,11  MEDITERRANEAN CALIFORNIA
STAID11174000,SAN ANTONIO C NR SUNOL CA,101.3,37.577434,-121.857734,11174000,USR0000CCLV,CALAVERAS ROAD CALIFORNIA,37.5531,-121.8439,2.967861177,JAMES H TURNER,CA00132,-121.8462,37.5759,SAN ANTONIO CREEK,3,N,RE,X,RS,S,1964, ,2160,193,0,175,193,0,0,50500,50500,825,40,H,Y,3240000,976.0423706,110,11.1,MEDITERRANEAN CALIFORNIA,11,MEDITERRANEAN CALIFORNIA,11.1  MEDITERRANEAN CALIFORNIA,11  MEDITERRANEAN CALIFORNIA
STAID11302000,STANISLAUS R BL GOODWIN DAM NR KNIGHTS FERRY CA,2539.6,37.851594,-120.637982,11302000,USC00044590,KNIGHTS FERRY 2 SE,37.8,-120.65,5.833287777,GOODWIN,CA00260,-120.6303,37.8633,STANISLAUS RV,4,N,MV,X,R,CS,1912, ,460,101,0,81,101,0,0,500,500,70,996,H,Y,11178,1446.869246,110,11.1,MEDITERRANEAN CALIFORNIA,11,MEDITERRANEAN CALIFORNIA,11.1  MEDITERRANEAN CALIFORNIA,11  MEDITERRANEAN CALIFORNIA
STAID11289650,TUOLUMNE R BL LAGRANGE DAM NR LAGRANGE CA,3983.7,37.666321,-120.442139,11289650,USC00042920,EXCHEQUER DAM,37.585,-120.2672,17.86416702,LA GRANGE,CA00278,-120.4444,37.6721,TUOLUMNE RIVER,1,N,MSVA, , , ,1893, ,310,131,0,0,131,0,500,350,500,58,0,S,NR,0,667.5297254,110,11.1,MEDITERRANEAN CALIFORNIA,11,MEDITERRANEAN CALIFORNIA,11.1  MEDITERRANEAN CALIFORNIA,11  MEDITERRANEAN CALIFORNIA
STAID11463980,RUSSIAN R A DIGGER BEND NR HEALDSBURG CA,2050.3,38.632965,-122.855549,11463980,USC00043875,HEALDSBURG,38.6214,-122.8581,1.304922987,FOSS CREEK NORTH AREA,CA01431,-122.8708,38.6435,FOSS CREEK,1,N,RE,X,S,C,1998, ,1100,19,0,15,19,0,0,85,85,10,1,S,N,14840,1710.205809,110,11.1,MEDITERRANEAN CALIFORNIA,11,MEDITERRANEAN CALIFORNIA,11.1  MEDITERRANEAN CALIFORNIA,11  MEDITERRANEAN CALIFORNIA
STAID11462500,RUSSIAN R NR HOPLAND CA,938.7,39.026563,-123.130559,11462500,USR0000CHLD,HOPLAND CALIFORNIA,39.0308,-123.0806,4.341082259,FELIZ NORTH LAKE,CA01610,-123.1396,38.9816,UNNAMED,1,N,RE,X,U,S,0, ,630,24,0,16,24,0,0,55,55,0,0,H,N,0,5046.045759,110,11.1,MEDITERRANEAN CALIFORNIA,11,MEDITERRANEAN CALIFORNIA,11.1  MEDITERRANEAN CALIFORNIA,11  MEDITERRANEAN CALIFORNIA
STAID10260500,DEEP C NR HESPERIA CA,349.2,34.341114,-117.228376,10260500,USC00043937,HESPERIA 2E,34.4206,-117.2661,9.49225124,MOJAVE DAM,CA10021,-117.2333,34.34333,WEST FORK MOJAVE RIVER,14,N,RE, , ,CR,1971, ,2200,200,0,193,200,105400,179400,1,179400,1,215,H,Y,0,493.4459615,110,11.1,MEDITERRANEAN CALIFORNIA,11,MEDITERRANEAN CALIFORNIA,11.1  MEDITERRANEAN CALIFORNIA,11  MEDITERRANEAN CALIFORNIA
STAID11126000,SANTA YNEZ R NR SANTA YNEZ CA,1090.2,34.589155,-119.988753,11126000,USC00041253,CACHUMA LAKE,34.5822,-119.9817,1.007455594,BRADBURY,CA10136,-119.9815,34.5872,SANTA YNEZ RIVER,1,N,RE,A,RK,IS,1953,2000 SFOEH,3350,279,279,201,279,159500,206900,172500,206900,3090,417,H,Y,6695000,667.5462082,110,11.1,MEDITERRANEAN CALIFORNIA,11,MEDITERRANEAN CALIFORNIA,11.1  MEDITERRANEAN CALIFORNIA,11  MEDITERRANEAN CALIFORNIA
STAID11251000,SAN JOAQUIN R BL FRIANT CA,4344.8,36.984394,-119.724312,11251000,USC00043261,FRIANT GOVERNMENT CAMP,36.9969,-119.7072,2.059996359,FRIANT,CA10154,-119.7053,37.0004,SAN JOAQUIN RIVER,0,N,CNPG, , ,CIRS,1942, ,3488,299,319,295,319,0,520500,520500,520500,4900,1633,H,Y,2135000,2388.137918,110,11.1,MEDITERRANEAN CALIFORNIA,11,MEDITERRANEAN CALIFORNIA,11.1  MEDITERRANEAN CALIFORNIA,11  MEDITERRANEAN CALIFORNIA
STAID11446500,AMERICAN R A FAIR OAKS CA,4984.4,38.63546,-121.227726,11446500,USC00043111,FOLSOM,38.6833,-121.1833,6.570986795,NIMBUS,CA10174,-121.2197,38.6362,AMERICAN RIVER,3,N,CNPG,A,RK,FHIR,1955, ,1093,87,87,47,87,300000,8800,8800,8800,540,1898,H,Y,121100,663.6769778,110,11.1,MEDITERRANEAN CALIFORNIA,11,MEDITERRANEAN CALIFORNIA,11.1  MEDITERRANEAN CALIFORNIA,11  MEDITERRANEAN CALIFORNIA
STAID04136000,"AU SABLE RIVER NEAR RED OAK, MI",2882.1,44.676959,-84.292515,4136000,USC00205531,MIO HYDRO PLT,44.6614,-84.1317,12.83428799,GLEN LAKE DAM,MI00738,-84.295,44.70833333,BEAVER CREEK,2,N,RE, , ,R,1975, ,1000,15,15,4,15,500,150,60,150,10,0,L,NR,0,3490.447806,925,5.2,MIXED WOOD SHIELD,5,NORTHERN FORESTS,5.2  MIXED WOOD SHIELD,5  NORTHERN FORESTS
STAID04124000,"MANISTEE RIVER NEAR SHERMAN, MI",2243.6,44.436392,-85.698679,4124000,USC00200917,BOON,44.3,-85.6333,16.03179083,KERR UPPER DAM,MI01907,-85.69166667,44.42833333,TRIBUTARY TO MANISTEE RIVER,0,N,RE, , ,O,0, ,350,25,25,25,25,0,39,25,39,3,0,L,NR,0,1038.980692,925,5.2,MIXED WOOD SHIELD,5,NORTHERN FORESTS,5.2  MIXED WOOD SHIELD,5  NORTHERN FORESTS
STAID04142000,"RIFLE RIVER NEAR STERLING, MI",865,44.07252,-84.019994,4142000,USC00207820,STANDISH 4NE,44.0125,-83.8978,11.82936351,CHARLYLE DAM,MI00015,-84.05,44.05833333,PARMALEE CREEK,3,N,RE, , ,R,1957, ,336,17,17,17,17,210,180,140,180,21,2,L,NR,0,2755.172284,925,5.2,MIXED WOOD SHIELD,5,NORTHERN FORESTS,5.2  MIXED WOOD SHIELD,5  NORTHERN FORESTS
STAID04137005,"AU SABLE RIVER NEAR CURTISVILLE, MI",4144.1,44.560847,-83.802764,4137005,USC00203194,GLENNIE 6W,44.5519,-83.8625,4.836495628,ALCONA,MI00150,-83.8042,44.5619,AU SABLE RIVER,35,N,PGRE,FEK,SK,H,1924, ,4820,60,51,40,60,22100,25000,25000,25000,1075,1469,H,Y,769674,157.7902027,925,5.2,MIXED WOOD SHIELD,5,NORTHERN FORESTS,5.2  MIXED WOOD SHIELD,5  NORTHERN FORESTS
STAID04121944,"LITTLE MUSKEGON RIVER NEAR OAK GROVE, MI",953.6,43.430858,-85.595599,4121944,USC00205803,NEWAYGO HARDY DAM,43.4833,-85.6333,6.577537905,CROTON,MI00162,-85.663898,43.437207,MUSKEGON RIVER,7,N,PGRE,FCK,SK,HR,1907,1998E,700,46,46,40,46,54494,0,22000,22000,1209,2290,H,Y,0,5242.620594,925,5.2,MIXED WOOD SHIELD,5,NORTHERN FORESTS,5.2  MIXED WOOD SHIELD,5  NORTHERN FORESTS
STAID04121970,"MUSKEGON RIVER NEAR CROTON, MI",6050.8,43.434746,-85.665324,4121970,USC00205803,NEWAYGO HARDY DAM,43.4833,-85.6333,5.985786924,CROTON,MI00162,-85.663898,43.437207,MUSKEGON RIVER,7,N,PGRE,FCK,SK,HR,1907,1998E,700,46,46,40,46,54494,0,22000,22000,1209,2290,H,Y,0,293.4512343,925,5.2,MIXED WOOD SHIELD,5,NORTHERN FORESTS,5.2  MIXED WOOD SHIELD,5  NORTHERN FORESTS
STAID04137500,"AU SABLE RIVER NEAR AU SABLE, MI",4529.2,44.436404,-83.433861,4137500,USC00206253,OSCODA FOOTE DAM,44.4333,-83.45,1.327080024,FOOTE,MI00169,-83.44,44.435,AU SABLE RIVER,8,N,CBPGRE,FCZ,SZ,H,1918,1993,4100,47,51,43,51,38774,30000,30000,30000,1800,1664,H,Y,1372655,485.2113376,925,5.2,MIXED WOOD SHIELD,5,NORTHERN FORESTS,5.2  MIXED WOOD SHIELD,5  NORTHERN FORESTS
STAID04124200,"MANISTEE RIVER NEAR MESICK, MI",2553.9,44.36306,-85.820905,4124200,USC00208772,WELLSTON TIPPY DAM,44.2586,-85.9394,14.96027999,HODENPYL,MI00174,-85.82,44.363,MANISTEE RIVER,30,N,PGRE,ICK,SK,H,1925,1996,4270,90,78,70,90,25759,0,39684,39684,1798,1018,H,Y,397654,68.64719486,925,5.2,MIXED WOOD SHIELD,5,NORTHERN FORESTS,5.2  MIXED WOOD SHIELD,5  NORTHERN FORESTS
STAID04136500,"AU SABLE RIVER AT MIO, MI",3524.8,44.660014,-84.131117,4136500,USC00205531,MIO HYDRO PLT,44.6614,-84.1317,0.160866173,MIO,MI00186,-84.1317,44.6609,AU SABLE RIVER,8,N,PGRE,FCK,SK,HR,1917,1989,2120,38,36,30,38,30880,0,6061,6061,661,1100,H,Y,419571,106.612449,925,5.2,MIXED WOOD SHIELD,5,NORTHERN FORESTS,5.2  MIXED WOOD SHIELD,5  NORTHERN FORESTS
STAID04125550,"MANISTEE RIVER NEAR WELLSTON, MI",3582.2,44.25945,-85.941742,4125550,USC00208772,WELLSTON TIPPY DAM,44.2586,-85.9394,0.209091058,TIPPY,MI00200,-85.9383,44.2583,MANISTEE RIVER,20,N,PGRE,ICK,SK,R,1918,1993,830,82,71,59,82,27361,0,27620,27620,1330,1451,H,Y,432576,289.0178802,925,5.2,MIXED WOOD SHIELD,5,NORTHERN FORESTS,5.2  MIXED WOOD SHIELD,5  NORTHERN FORESTS
STAID04059500,"FORD RIVER NEAR HYDE, MI",1184.4,45.755523,-87.201524,4059500,USC00201802,CORNELL 5SE,45.8269,-87.1589,8.597311577,ESCANABA NO 2 DAM,MI00165,-87.10166667,45.815,ESCANABA RIVER,3,N,PG, , ,O,1910, ,1300,20,20,20,20,0,950,250,950,45,915,L,NR,0,9854.916114,964,5.2,MIXED WOOD SHIELD,5,NORTHERN FORESTS,5.2  MIXED WOOD SHIELD,5  NORTHERN FORESTS
STAID04059000,"ESCANABA RIVER AT CORNELL, MI",2257,45.908573,-87.213748,4059000,USC00201800,CORNELL 4 WSW,45.8833,-87.3,7.242295804,ESCANABA NO 4 BONEY FALLS,MI00167,-87.2689,45.9801,ESCANABA,20,N,CNPGRE,FEK,RK, ,1920,1989S,3300,49,0,0,49,100000,0,0,0,0,770,H,Y,0,8910.550956,964,5.2,MIXED WOOD SHIELD,5,NORTHERN FORESTS,5.2  MIXED WOOD SHIELD,5  NORTHERN FORESTS
STAID04041500,"STURGEON RIVER NEAR ALSTON, MI",869.9,46.726323,-88.662079,4041500,USC00200495,BARAGA 5W,46.7953,-88.6014,8.954964535,PRICKETT  INTAKE & POWERHOUSE,MI00193,-88.6623,46.726,STURGEON RIVER,6,N,RE, , ,HR,1931, ,80,69,28,42,69,800,13687,6500,13687,773,400,H,Y,0,39.96323432,964,5.2,MIXED WOOD SHIELD,5,NORTHERN FORESTS,5.2  MIXED WOOD SHIELD,5  NORTHERN FORESTS
STAID04043275,"YELLOW DOG RIVER NEAR BIG BAY, MI",84.4,46.713539,-87.840687,4043275,USC00200771,BIG BAY 9SW,46.7461,-87.8817,4.78331988,SILVER LAKE MAIN DAM,MI00197,-87.83,46.65,DEAD RIVER,30,N,PGRE, , ,HR,1912,1945,1500,30,30,0,30,3125,29300,28000,29300,1220,24,H,Y,0,7106.195038,964,5.2,MIXED WOOD SHIELD,5,NORTHERN FORESTS,5.2  MIXED WOOD SHIELD,5  NORTHERN FORESTS
STAID04040000,"ONTONAGON RIVER NEAR ROCKLAND, MI",3494.2,46.720774,-89.207086,4040000,USC00208506,VICTORIA,46.6667,-89.2333,6.336435218,VICTORIA,MI00203,-89.2295,46.6862,WEST BRANCH ONTONAGON,18,N,CNPGRE,HCK,RK,HR,1930,1991S,860,115,115,210,210,21000,10300,10300,10300,250,661,H,Y,0,4169.807678,964,5.2,MIXED WOOD SHIELD,5,NORTHERN FORESTS,5.2  MIXED WOOD SHIELD,5  NORTHERN FORESTS
STAID04024000,"ST. LOUIS RIVER AT SCANLON, MN",8840.5,46.703276,-92.418802,4024000,USC00211630,CLOQUET,46.7053,-92.5239,8.017245574,SCANLON WEST CHANNEL PLUG DAM,MN00605,-92.4217,46.7072,ST LOUIS RIVER,0,N,PG, , ,H,1922, ,107,15,15,15,15,0,876,847,876,74,0,L,Y,0,482.5633288,964,5.2,MIXED WOOD SHIELD,5,NORTHERN FORESTS,5.2  MIXED WOOD SHIELD,5  NORTHERN FORESTS
STAID04027000,"BAD RIVER NEAR ODANAH, WI",1619.8,46.486614,-90.696297,4027000,USC00475286,MELLEN 4 NE,46.3689,-90.6417,13.74179952,ELM HOIST WILDLIFE,WI00496,-90.7063287,46.495152,TR BAD,0, ,RE,X,U,R,1971, ,2400,18,18,15,18,290,72,17,72,6,0,L,N,6501,1193.644379,964,5.2,MIXED WOOD SHIELD,5,NORTHERN FORESTS,5.2  MIXED WOOD SHIELD,5  NORTHERN FORESTS
STAID04063700,"POPPLE RIVER NEAR FENCE, WI",362.6,45.76357,-88.463179,4063700,USC00473174,GOODMAN SANITARY DIST,45.6214,-88.3603,17.71333198,MUD CREEK,WI00506,-88.4578951,45.7406522,MUD CREEK,0, ,RE,X,U,R,1965, ,288,11,11,9,11,0,350,200,350,76,8,L,N,0,2577.456767,964,5.2,MIXED WOOD SHIELD,5,NORTHERN FORESTS,5.2  MIXED WOOD SHIELD,5  NORTHERN FORESTS
STAID04067500,"MENOMINEE RIVER NEAR MC ALLISTER, WI",10155,45.325809,-87.663446,4067500,USC00207867,STEPHENSON 5WSW,45.3903,-87.7025,7.793300944,GRAND RAPIDS DETACHED DIKE NO 3,MI00022,-87.66,45.3217,MENOMINIE RIVER,18,N,RE,HEZ,SZ,HR,1909, ,300,10,0,0,10,0,2150,2141,2150,300,3720,L,Y,0,523.6758218,964,5.2,MIXED WOOD SHIELD,5,NORTHERN FORESTS,5.2  MIXED WOOD SHIELD,5  NORTHERN FORESTS
STAID05333500,"ST. CROIX RIVER NEAR DANBURY, WI",3901.5,46.074943,-92.247415,5333500,USC00471978,DANBURY,46.0086,-92.3736,12.21792336,GOMULAK AND PROFITT,WI00502,-92.23709,46.12663,GLENDENNING CREEK,0,N,CN,C,Z,O,1969,2003O,600,17,17,11,17,691,360,120,360,34,2,S,Y,14800,5793.321221,964,5.2,MIXED WOOD SHIELD,5,NORTHERN FORESTS,5.2  MIXED WOOD SHIELD,5  NORTHERN FORESTS
STAID04069500,"PESHTIGO RIVER AT PESHTIGO, WI",2882.1,45.047486,-87.74455,4069500,USC00476510,PESHTIGO,45.0281,-87.7358,2.262612507,PESHTIGO,WI00756,-87.745,45.0467,PESHTIGO RIVER,0,N,PG,HCZ,SZ,HR,1907, ,358,19,0,13,19,11500,2000,1000,2000,460,1086,L,NR,0,94.20784072,964,5.2,MIXED WOOD SHIELD,5,NORTHERN FORESTS,5.2  MIXED WOOD SHIELD,5  NORTHERN FORESTS
STAID03027500,"EB Clarion River at EB Clarion River Dam, PA",187.9,41.553118,-78.596135,3027500,USC00363311,GLEN HAZEL 2 NE DAM,41.5631,-78.6014,1.19327053,EAST BRANCH DAM,PA00104,-78.596672,41.558331,CLARION RIVER,6,N,RE,EIK,R,COFR,1952, ,1725,0,184,173,184,35200,103000,64300,103000,1160,72,H,Y,2826400,579.5776651,968,5.3,ATLANTIC HIGHLANDS,5,NORTHERN FORESTS,5.3  ATLANTIC HIGHLANDS,5  NORTHERN FORESTS
STAID03012550,"Allegheny River at Kinzua Dam, PA",5640.1,41.841449,-79.011985,3012550,USC00364571,KINZUA DAM,41.8422,-79.0169,0.41562929,KINZUA DAM,PA00105,-79,41.838329,ALLEGHENY RIVER,5,N, ,CHK,RSK,COHRF,1965, ,1916,0,177,172,177,144000,1300000,573000,1300000,12080,2180,H,Y,3138000,997.7333494,968,5.3,ATLANTIC HIGHLANDS,5,NORTHERN FORESTS,5.3  ATLANTIC HIGHLANDS,5  NORTHERN FORESTS
STAID03020000,"Tionesta Creek at Tionesta Creek Dam, PA",1237.4,41.478951,-79.44588,3020000,USC00368873,TIONESTA 2 SE LAKE,41.4792,-79.4433,0.216708022,TIONESTA DAM,PA00110,-79.446671,41.474998,TIONESTA CREEK,1,N,RE,EIK,RSK,CRF,1940, ,1050,0,154,142,154,103000,180000,7800,180000,480,478,H,Y,1821600,444.2627663,968,5.3,ATLANTIC HIGHLANDS,5,NORTHERN FORESTS,5.3  ATLANTIC HIGHLANDS,5  NORTHERN FORESTS
STAID03025500,"Allegheny River at Franklin, PA",15426.4,41.389503,-79.820332,3025500,USC00363028,FRANKLIN,41.4003,-79.8306,1.474779632,FT CHARLES YOUNG,PA01655,-79.84111111,41.33055556,TR ALLEGHENY RIVER,0,N,RE,XZ,UZ,R,0, ,0,75,0,0,75,0,32,0,32,0,1,L,NR,0,6748.234053,968,5.3,ATLANTIC HIGHLANDS,5,NORTHERN FORESTS,5.3  ATLANTIC HIGHLANDS,5  NORTHERN FORESTS
STAID03028000,"West Branch Clarion River at Wilcox, PA",161.1,41.57534,-78.692249,3028000,USC00364437,KANE 5 SE,41.6,-78.7667,6.771879748,TWIN LAKES,PA01988,-78.75166667,41.60833333,HOFFMAN RUN,2,N,RE, , ,FFR,1936, ,380,18,0,18,18,3600,117,44,117,7,5,S,NR,5600,5922.415423,968,5.3,ATLANTIC HIGHLANDS,5,NORTHERN FORESTS,5.3  ATLANTIC HIGHLANDS,5  NORTHERN FORESTS
STAID01433500,MONGAUP RIVER NEAR MONGAUP NY,523.7,41.461481,-74.758775,1433500,USC00365470,MATAMORAS,41.3914,-74.7172,8.528812575,RIO,NY00497,-74.7559,41.4796,MONGAUP RIVER,6,N,PGRE,HCK,RK,HR,1927,1996S,1487,101,0,0,101,56700,15037,15037,15037,460,195,H,Y,0,2024.046993,969,5.3,ATLANTIC HIGHLANDS,5,NORTHERN FORESTS,5.3  ATLANTIC HIGHLANDS,5  NORTHERN FORESTS
STAID01428500,DELAWARE R ABOVE LACKAWAXEN R NR BARRYVILLE NY,5242.8,41.508978,-74.985723,1428500,USC00363758,HAWLEY 1 E,41.4764,-75.1653,15.38930019,LAKE LA BARR DAM,NY00515,-74.9675,41.53416667,NARROW FALLS BROOK,0, ,RE, , ,R,1964, ,640,18,0,0,18,375,160,145,160,84,1,S,Y,0,3140.533799,969,5.3,ATLANTIC HIGHLANDS,5,NORTHERN FORESTS,5.3  ATLANTIC HIGHLANDS,5  NORTHERN FORESTS
STAID01436690,NEVERSINK RIVER AT BRIDGEVILLE NY,443,41.638064,-74.616883,1436690,USC00307210,ROCK HILL 3 SW,41.5917,-74.6142,5.160264172,DAVIES LAKE DAM,NY00976,-74.60305556,41.61833333,DAVIES BROOK,0, ,RE, , ,R,1956, ,448,10,0,0,10,422,160,90,160,26,2,L,Y,0,2445.023114,969,5.3,ATLANTIC HIGHLANDS,5,NORTHERN FORESTS,5.3  ATLANTIC HIGHLANDS,5  NORTHERN FORESTS
STAID01447800,Lehigh R bl Francis E Walter Res nr White Haven PA,752.7,41.104806,-75.732136,1447800,USC00360455,FRANCIS E WALTER DAM,41.1167,-75.7333,1.326142844,FRANCIS E WALTER DAM,PA00008,-75.719254,41.11018,LEHIGH RIVER,5,N,RE,EIK,RK,CR,1961, ,3000,0,239,233,239,128000,160290,1793,160290,80,288,H,Y,4275000,1178.46089,969,5.3,ATLANTIC HIGHLANDS,5,NORTHERN FORESTS,5.3  ATLANTIC HIGHLANDS,5  NORTHERN FORESTS
STAID01431500,"Lackawaxen River at Hawley, PA",748.7,41.4762,-75.172119,1431500,USC00363758,HAWLEY 1 E,41.4764,-75.1653,0.568529741,VALLEY VIEW,PA00312,-75.15555556,41.49166667,SWAMP BROOK,0,N,RE,XZ,UZ,R,1956,2008S,400,18,0,0,18,0,748,224,748,45,8,S,Y,0,2153.248745,969,5.3,ATLANTIC HIGHLANDS,5,NORTHERN FORESTS,5.3  ATLANTIC HIGHLANDS,5  NORTHERN FORESTS
STAID01432110,"Lackawaxen River at Rowland, PA",1528.2,41.475923,-75.036281,1432110,USC00363758,HAWLEY 1 E,41.4764,-75.1653,10.74879624,WESTCOLANG LAKE,PA00396,-75.03833333,41.51166667,WESTCOLANG CREEK,0,N,RE,XZ,UZ,R,1912,2002S;2009H,120,13,0,0,13,0,2760,2290,2760,219,2,H,Y,0,3972.143449,969,5.3,ATLANTIC HIGHLANDS,5,NORTHERN FORESTS,5.3  ATLANTIC HIGHLANDS,5  NORTHERN FORESTS
STAID01447500,"Lehigh River at Stoddartsville, PA",240.2,41.130363,-75.625467,1447500,USC00365160,LONG POND POCONO LAKE,41.1192,-75.5481,6.598129949,LAKE SINCA,PA00604,-75.5975,41.10222222,TR TWOMILE RUN,0,N,RE,XZ,UZ,R,1969, ,1100,24,0,0,24,0,221,132,221,22,0,H,Y,0,3826.556185,969,5.3,ATLANTIC HIGHLANDS,5,NORTHERN FORESTS,5.3  ATLANTIC HIGHLANDS,5  NORTHERN FORESTS
STAID01447720,"Tobyhanna Creek near Blakeslee, PA",308.1,41.084808,-75.605467,1447720,USC00365160,LONG POND POCONO LAKE,41.1192,-75.5481,6.142450257,LAKE SINCA,PA00604,-75.5975,41.10222222,TR TWOMILE RUN,0,N,RE,XZ,UZ,R,1969, ,1100,24,0,0,24,0,221,132,221,22,0,H,Y,0,2032.786651,969,5.3,ATLANTIC HIGHLANDS,5,NORTHERN FORESTS,5.3  ATLANTIC HIGHLANDS,5  NORTHERN FORESTS
STAID01362500,ESOPUS CREEK AT COLDBROOK NY,493.2,42.014259,-74.270703,1362500,USC00306570,PHONECIA 2SW,42.0675,-74.3356,7.985578167,KENOZIA LAKE DAM,NY01273,-74.16833333,41.99333333,TR-ASHOKAN RESERVOIR,0, ,CN, , ,R,1958, ,210,10,0,0,10,0,113,90,113,34,0,L,NR,0,8298.628109,970,5.3,ATLANTIC HIGHLANDS,5,NORTHERN FORESTS,5.3  ATLANTIC HIGHLANDS,5  NORTHERN FORESTS
STAID01435000,NEVERSINK RIVER NEAR CLARYVILLE NY,172.5,41.890092,-74.589879,1435000,USC00303076,FROST VALLEY,41.9667,-74.55,9.134950154,ROUND POND DAM,NY01328,-74.58333333,41.94,TR-W BR NEVERSINK RIVER,0, ,RE, , ,R,1961, ,90,10,0,0,10,120,80,52,80,19,0,L,NR,0,5565.855965,970,5.3,ATLANTIC HIGHLANDS,5,NORTHERN FORESTS,5.3  ATLANTIC HIGHLANDS,5  NORTHERN FORESTS
STAID01186000,"WEST BRANCH FARMINGTON RIVER AT RIVERTON, CT",333.6,41.962873,-73.017606,1186000,USC00061508,COLEBROOK RVR LAKE,42.0003,-73.0439,4.695037228,ROBERTSVILLE DAM,CT00453,-73.043769,41.966025,STILL RIVER,1,N,CN,HCK,RK,H,1887, ,171,29,0,0,29,15000,134,134,134,11,50,S,Y,0,2066.791805,982,5.3,ATLANTIC HIGHLANDS,5,NORTHERN FORESTS,5.3  ATLANTIC HIGHLANDS,5  NORTHERN FORESTS
STAID01187300,"HUBBARD RIVER NR. WEST HARTLAND, CT.",53.9,42.037316,-72.938991,1187300,USC00199221,WEST GRANVILLE,42.0667,-72.9333,3.300966427,HOWELLS POND DAM,CT00543,-72.991756,42.021457,HOWELLS BROOK,0,N,CN, , ,R,1880, ,145,10,0,0,10,1544,103,103,103,14,2,S,Y,0,4466.687173,982,5.3,ATLANTIC HIGHLANDS,5,NORTHERN FORESTS,5.3  ATLANTIC HIGHLANDS,5  NORTHERN FORESTS
STAID01170100,"GREEN RIVER NEAR COLRAIN, MA",107,42.703417,-72.670648,1170100,USC00435029,MAYS MILL,42.75,-72.7333,7.28151835,COLRAIN LOWER RESERVOIR DAM,MA02595,-72.693143,42.668101,EAST BROOK,0, ,CNMS,X,U,P,1902, ,85,15,0,14,15,0,3,2,3,0,0,S,NR,0,4289.196724,982,5.3,ATLANTIC HIGHLANDS,5,NORTHERN FORESTS,5.3  ATLANTIC HIGHLANDS,5  NORTHERN FORESTS
STAID01157000,"ASHUELOT RIVER NEAR GILSUM, NH",182.6,43.039246,-72.270086,1157000,USC00278539,SURRY MTN LAKE,42.9967,-72.3128,5.868594702,SPOONS POND DAM,NH00019,-72.2425,43.068,CONVERSE BROOK,0,N,RE,X,U,R,1966, ,200,20,0,0,20,458,60,50,60,10,1,L,NR,0,3828.280785,982,5.3,ATLANTIC HIGHLANDS,5,NORTHERN FORESTS,5.3  ATLANTIC HIGHLANDS,5  NORTHERN FORESTS
STAID01129200,"CONNECTICUT R BELOW INDIAN STREAM NR PITTSBURG, NH",658.7,45.040324,-71.443971,1129200,CA007022300,EAST HEREFORD,45.0833,-71.5,6.496271748,MURPHY DAM,NH00185,-71.3816,45.0462,CONNECTICUT RIVER,0,N,RE,X,U,R,1938, ,2200,106,0,0,106,74000,132000,99500,132000,1895,170,H,Y,0,4667.712673,982,5.3,ATLANTIC HIGHLANDS,5,NORTHERN FORESTS,5.3  ATLANTIC HIGHLANDS,5  NORTHERN FORESTS
STAID01160000,"S BR ASHUELOT RIVER AT WEBB, NR MARLBOROUGH, NH",92.9,42.872027,-72.213695,1160000,USC00276550,OTTER BROOK LAKE,42.9453,-72.2369,8.363902886,MEETINGHOUSE POND DAM,NH00450,-72.1855,42.8831,TR SHAKER BROOK,0,N,RE,X,U,R,1942,2014,210,6,0,0,6,237,121,58,121,42,1,L,NR,0,2488.731774,982,5.3,ATLANTIC HIGHLANDS,5,NORTHERN FORESTS,5.3  ATLANTIC HIGHLANDS,5  NORTHERN FORESTS
STAID01091000,"SOUTH BRANCH PISCATAQUOG RIVER NEAR GOFFSTOWN, NH",266.8,43.014805,-71.641461,1091000,USC00278972,WEARE,43.0847,-71.7383,11.05993351,RIVERDALE DAM,NH01103,-71.6463,43.0327,PISCATAQUOG RIVER,0,N,CN,X,U,C,0, ,90,10,0,0,10,0,153,87,153,33,47,L,NR,0,2021.276827,982,5.3,ATLANTIC HIGHLANDS,5,NORTHERN FORESTS,5.3  ATLANTIC HIGHLANDS,5  NORTHERN FORESTS
STAID01379773,GREEN POND BROOK AT PICATINNY ARSENAL NJ,19.6,40.959444,-74.539722,1379773,USC00288402,SPLIT ROCK POND,40.9667,-74.4667,6.184286359,LAKE DENMARK,NJ00001,-74.52859998,40.96500001,BURNT MEADOW BROOK,7,N,RE,XEZ,RS,CFPRS,1904,2012,360,12,12,9,12,402,3203,2257,3203,299,4,H,Y,0,1074.032604,982,5.3,ATLANTIC HIGHLANDS,5,NORTHERN FORESTS,5.3  ATLANTIC HIGHLANDS,5  NORTHERN FORESTS
STAID01396500,SOUTH BRANCH RARITAN RIVER NEAR HIGH BRIDGE NJ,162.5,40.677778,-74.879167,1396500,USC00283029,FLEMINGTON 5 NNW,40.5739,-74.8817,11.55268457,LAKE SOLITUDE DAM,NJ00123,-74.8879,40.67215,SOUTH BRANCH RARITAN RIVER,0, ,PGRE, , ,R,0, ,217,42,0,0,42,0,0,540,540,32,65,H,Y,0,934.255481,982,5.3,ATLANTIC HIGHLANDS,5,NORTHERN FORESTS,5.3  ATLANTIC HIGHLANDS,5  NORTHERN FORESTS
STAID01382500,PEQUANNOCK R AT MACOPIN INTAKE DAM NJ,164.1,41.018333,-74.401111,1382500,USC00281582,CHARLOTTEBURG RSVR,41.03,-74.4247,2.366200136,MACOPIN RESERVOIR DAM,NJ00320,-74.40286667,41.01976667,PEQUANNOCK RIVER,0, ,MSST, , ,S,1892, ,434,34,0,0,34,17600,206,101,206,12,64,H,Y,0,210.4007041,982,5.3,ATLANTIC HIGHLANDS,5,NORTHERN FORESTS,5.3  ATLANTIC HIGHLANDS,5  NORTHERN FORESTS
STAID01382170,Pequannock River at NJ Route 23 near Oak Ridge NJ,49.2,41.077778,-74.489722,1382170,USC00281582,CHARLOTTEBURG RSVR,41.03,-74.4247,7.612534041,UPPER CREST LAKE DAM,NJ01016,-74.47205,41.0673,PEQUANNOCK RIVER-TR,0, ,RE, , ,R,0, ,0,0,0,0,0,0,0,0,0,0,0,S,Y,0,1817.516844,982,5.3,ATLANTIC HIGHLANDS,5,NORTHERN FORESTS,5.3  ATLANTIC HIGHLANDS,5  NORTHERN FORESTS
STAID09352900,"VALLECITO CREEK NEAR BAYFIELD, CO.",188.2,37.477501,-107.543669,9352900,USS0007M31S,Vallecito,37.49,-107.51,3.279845339,DURANGO #1,CO02084,-107.60389,37.538329,FLORIDA RIVER,41,Y,ER,X,U,S,1899, ,360,16,16,16,16,223,530,450,530,40,5,L,NR,0,8410.01792,1004,6.2,WESTERN CORDILLERA,6,NORTHWESTERN FORESTED MOUNTAINS,6.2  WESTERN CORDILLERA,6  NORTHWESTERN FORESTED MOUNTAINS
STAID07094500,"ARKANSAS RIVER AT PARKDALE, CO.",6373.4,38.487219,-105.373604,7094500,USC00051294,CANON CITY,38.46,-105.2256,13.23504096,HARVEY - MURRY,CO00465,-105.41389,38.498329,CURRANT CREEK-OS,0,N,RE,X,U,I,1953, ,260,17,48,40,48,345,149,11,149,2,0,L,NR,0,3529.076959,1004,6.2,WESTERN CORDILLERA,6,NORTHWESTERN FORESTED MOUNTAINS,6.2  WESTERN CORDILLERA,6  NORTHWESTERN FORESTED MOUNTAINS
STAID09085100,"COLORADO RIVER BELOW GLENWOOD SPRINGS, CO.",15578.9,39.554982,-107.337554,9085100,USC00053359,GLENWOOD SPGS #2,39.5181,-107.3172,4.457085827,BARTON PORTER EAST,CO00698,-107.429171,39.526669,SOUTH CANYON CREEK-OS,10,N,RE,IEK,RSK,I,1958,2005,826,75,75,62,75,3710,1195,1034,1195,25,0,S,Y,195900,8044.00187,1004,6.2,WESTERN CORDILLERA,6,NORTHWESTERN FORESTED MOUNTAINS,6.2  WESTERN CORDILLERA,6  NORTHWESTERN FORESTED MOUNTAINS
STAID09034500,"COLORADO RIVER AT HOT SULPHUR SPRINGS, CO.",2135.3,40.083319,-106.088076,9034500,USC00054129,HOT SULPHUR SPGS 2 SW,40.05,-106.15,6.441619177,COTTONWOOD,CO00707,-106.07222,40.073329,GARDINER CREEK,3,N,RE,X,U,I,1961, ,330,31,36,31,36,543,106,71,106,7,2,L,NR,0,1688.181899,1004,6.2,WESTERN CORDILLERA,6,NORTHWESTERN FORESTED MOUNTAINS,6.2  WESTERN CORDILLERA,6  NORTHWESTERN FORESTED MOUNTAINS
STAID09359020,"ANIMAS RIVER BELOW SILVERTON, CO",378.2,37.790275,-107.667561,9359020,USC00057656,SILVERTON,37.8089,-107.6633,2.104571997,DUCK SLOUGH,CO01059,-107.710843,37.728058,E LIME CREEK,41,Y,RE,X,U,FR,1956, ,95,24,24,24,24,882,206,131,206,15,0,L,NR,0,7784.299029,1004,6.2,WESTERN CORDILLERA,6,NORTHWESTERN FORESTED MOUNTAINS,6.2  WESTERN CORDILLERA,6  NORTHWESTERN FORESTED MOUNTAINS
STAID09358000,"ANIMAS RIVER AT SILVERTON, CO.",182.5,37.811108,-107.659228,9358000,USC00057656,SILVERTON,37.8089,-107.6633,0.433871691,HIGHLAND MARY,CO01064,-107.573339,37.764996,CUNNINGHAM CREEK,10,Y,MSPG,X,U,S,1903, ,117,27,28,25,28,238,722,168,722,48,1,L,NR,0,8774.407173,1004,6.2,WESTERN CORDILLERA,6,NORTHWESTERN FORESTED MOUNTAINS,6.2  WESTERN CORDILLERA,6  NORTHWESTERN FORESTED MOUNTAINS
STAID07086000,"ARKANSAS RIVER AT GRANITE, CO.",1116.5,39.042771,-106.265855,7086000,USC00058496,TWIN LAKES EVAPORATION,39.0833,-106.3,5.385193908,CLEAR CREEK,CO01143,-106.247219,39.021669,CLEAR CREEK,15,N,RE,HEK,S,FRS,1910,1983- RAISED CREST 5 FT & CONSTRUCTED EMERGENCY SPILLWAYS,2850,70,80,66,80,42000,13560,11500,13560,425,69,H,Y,0,2792.42656,1004,6.2,WESTERN CORDILLERA,6,NORTHWESTERN FORESTED MOUNTAINS,6.2  WESTERN CORDILLERA,6  NORTHWESTERN FORESTED MOUNTAINS
STAID09064600,"EAGLE RIVER NEAR MINTURN, CO",478.8,39.553875,-106.402529,9064600,USC00056917,REDCLIFF,39.5167,-106.3667,5.150540559,CASE #1 DAM,CO01940,-106.3166656,39.5,ANTELOPE CREEK,0,N,RE,X, ,FIC,1908,2002SH,1635,15,15,12,15,783,230,127,230,25,0,L,NR,26400,9164.097714,1004,6.2,WESTERN CORDILLERA,6,NORTHWESTERN FORESTED MOUNTAINS,6.2  WESTERN CORDILLERA,6  NORTHWESTERN FORESTED MOUNTAINS
STAID09041090,"MUDDY CREEK ABOVE ANTELOPE CREEK NR. KREMMLING, CO",375.5,40.202484,-106.422534,9041090,USC00053423,GORE PASS RCH,40.15,-106.4667,6.938187187,ANTELOPE,CO02114,-106.38222,40.211669,ANTELOPE CR-TR,9,N,RE,X,U,PRS,1915, ,450,40,40,40,40,207,425,347,425,25,3,L,NR,0,3383.558874,1004,6.2,WESTERN CORDILLERA,6,NORTHWESTERN FORESTED MOUNTAINS,6.2  WESTERN CORDILLERA,6  NORTHWESTERN FORESTED MOUNTAINS
STAID09239500,"YAMPA RIVER AT STEAMBOAT SPRINGS, CO.",1460,40.483588,-106.832271,9239500,USC00057936,STEAMBOAT SPRINGS,40.4883,-106.8233,0.922024524,UPPER SPRING CREEK,CO02610,-106.80389,40.489999,SPRING CREEK,1,N,RE,X,U,RS,1960, ,170,21,21,21,21,464,17,4,17,1,7,S,Y,7581,2371.121747,1004,6.2,WESTERN CORDILLERA,6,NORTHWESTERN FORESTED MOUNTAINS,6.2  WESTERN CORDILLERA,6  NORTHWESTERN FORESTED MOUNTAINS
STAID09033300,FRASER RIVER BLW CROOKED CR AT TABERNASH CO,580.6,40.00582,-105.848344,9033300,USC00058148,TABERNASH,40,-105.85,0.662347882,GAYLORD,CO02724,-105.93694,39.976389,POLE CREEK-TR,5,N,RE,X,U,IORS,1991, ,400,49,67,58,67,2876,255,170,255,9,1,L,NR,0,7826.419846,1004,6.2,WESTERN CORDILLERA,6,NORTHWESTERN FORESTED MOUNTAINS,6.2  WESTERN CORDILLERA,6  NORTHWESTERN FORESTED MOUNTAINS
STAID06077200,Smith River bl Eagle Cr nr Fort Logan MT,2816.5,46.828005,-111.192174,6077200,USC00248936,WHITE SULPHUR SPRNGS 2,46.8333,-111.2,0.837325263,DABLER DAM,MT03604,-111.2635,46.7565,TR-DRY BEAVER CREEK,22,N,RE, , ,P,1950, ,300,20,0,20,20,0,57,29,57,0,0,L,NR,0,9462.370353,1012,6.2,WESTERN CORDILLERA,6,NORTHWESTERN FORESTED MOUNTAINS,6.2  WESTERN CORDILLERA,6  NORTHWESTERN FORESTED MOUNTAINS
STAID10336580,UPPER TRUCKEE RV AT S UPPER TRUCKEE RD NR MEYERS,36.9,38.7963,-120.01907,10336580,USC00042671,ECHO SUMT SIERRA AT TA,38.7833,-120.0333,1.900174063,ECHO LAKE,CA00374,-120.0443,38.8349,ECHO CREEK,9,Y,RC, , ,DHIR,1992, ,321,12,14,12,14,1100,1860,1860,1860,338,5,H,Y,0,4754.199406,1024,6.2,WESTERN CORDILLERA,6,NORTHWESTERN FORESTED MOUNTAINS,6.2  WESTERN CORDILLERA,6  NORTHWESTERN FORESTED MOUNTAINS
STAID10343500,SAGEHEN C NR TRUCKEE CA,27.6,39.431572,-120.237979,10343500,USC00047641,SAGEHEN CREEK,39.4317,-120.2406,0.22555428,INDEPENDENCE,CA00458,-120.2907,39.4519,INDEPENDENCE CR,30,Y,RE,X,S,S,1939, ,847,31,0,28,31,0,0,18500,18500,725,8,S,N,8749,4826.367302,1024,6.2,WESTERN CORDILLERA,6,NORTHWESTERN FORESTED MOUNTAINS,6.2  WESTERN CORDILLERA,6  NORTHWESTERN FORESTED MOUNTAINS
STAID10336645,GENERAL C NR MEEKS BAY CA,19.6,39.051852,-120.118521,10336645,USC00048760,TAHOMA,39.06,-120.1292,1.29271815,QUAIL LAKE,CA00547,-120.1644,39.071,TR LAKE TAHOE,0,N,RE,X,U,HS,1926, ,90,14,0,11,14,0,0,70,70,14,0,U,N,600,4296.365054,1024,6.2,WESTERN CORDILLERA,6,NORTHWESTERN FORESTED MOUNTAINS,6.2  WESTERN CORDILLERA,6  NORTHWESTERN FORESTED MOUNTAINS
STAID10336660,BLACKWOOD C NR TAHOE CITY CA,29.8,39.107407,-120.162135,10336660,USC00048760,TAHOMA,39.06,-120.1292,5.989054662,QUAIL LAKE,CA00547,-120.1644,39.071,TR LAKE TAHOE,0,N,RE,X,U,HS,1926, ,90,14,0,11,14,0,0,70,70,14,0,U,N,600,4046.53439,1024,6.2,WESTERN CORDILLERA,6,NORTHWESTERN FORESTED MOUNTAINS,6.2  WESTERN CORDILLERA,6  NORTHWESTERN FORESTED MOUNTAINS
STAID10336770,"TROUT CK AT USFS RD 12N01 NR MEYERS, CA",19.1,38.863241,-119.958237,10336770,USS0019L03S,Hagan's Meadow,38.85,-119.94,2.159032998,EMERG EFFLUENT HOLDING,CA01106,-119.9653,38.9155,TR HEAVENLY VY CR,0,Y,RE,X,S,CS,1961, ,3250,27,0,25,27,0,0,184,184,17,0,H,N,69000,5829.337716,1024,6.2,WESTERN CORDILLERA,6,NORTHWESTERN FORESTED MOUNTAINS,6.2  WESTERN CORDILLERA,6  NORTHWESTERN FORESTED MOUNTAINS
STAID10336676,WARD C AT HWY 89 NR TAHOE PINES CA,24.7,39.132129,-120.157691,10336676,USC00048758,TAHOE CITY,39.1678,-120.1428,4.169104745,LAKE TAHOE,CA10162,-120.144,39.1671,TRUCKEE RIVER,17,N,CBCNOT,A,RK,I,1913,1990 SE,109,18,18,10,18,0,732000,732000,732000,120000,122200,H,Y,400,4038.572576,1024,6.2,WESTERN CORDILLERA,6,NORTHWESTERN FORESTED MOUNTAINS,6.2  WESTERN CORDILLERA,6  NORTHWESTERN FORESTED MOUNTAINS
STAID13340000,CLEARWATER RIVER AT OROFINO ID,14268.9,46.478333,-116.2575,13340000,USC00106681,OROFINO,46.4833,-116.2667,0.895133191,DWORSHAK DAM AND RESERVOIR,ID00287,-116.2961,46.509998,NORTH FORK CLEARWATER RIVER,2,N,CNPG, ,RK,CHNRSF,1973, ,3287,0,717,633,717,221000,3560000,3468000,3560000,17090,2440,H,Y,6450000,4491.581641,1024,6.2,WESTERN CORDILLERA,6,NORTHWESTERN FORESTED MOUNTAINS,6.2  WESTERN CORDILLERA,6  NORTHWESTERN FORESTED MOUNTAINS
STAID06191500,Yellowstone River at Corwin Springs MT,6783.6,45.11188,-110.794381,6191500,USC00244263,HORR,45.05,-110.8667,8.921107209,BANANA PEEL DAM,MT03343,-110.8303594,45.16783533,SLIP AND SLIDE CREEK,0,N,RE, , ,I,1952, ,100,8,0,8,8,200,63,8,63,0,8,L,NR,0,6763.297741,1024,6.2,WESTERN CORDILLERA,6,NORTHWESTERN FORESTED MOUNTAINS,6.2  WESTERN CORDILLERA,6  NORTHWESTERN FORESTED MOUNTAINS
STAID06043500,Gallatin River near Gallatin Gateway MT,2120.4,45.497429,-111.270511,6043500,USR0000MSQU,SHENANGO MONTANA,45.4511,-111.2189,6.537066321,GREEN HOLLOW CREEK DAM,MT03804,-111.3511043,45.50165818,GREEN HOLLOW CREEK,9,N,RE, ,SZ,R,1990, ,680,45,0,38,45,4100,300,174,300,15,4,H,Y,0,5944.914863,1024,6.2,WESTERN CORDILLERA,6,NORTHWESTERN FORESTED MOUNTAINS,6.2  WESTERN CORDILLERA,6  NORTHWESTERN FORESTED MOUNTAINS
STAID06190540,"Boiling River at Mammoth,YNP",511.6,44.985213,-110.689099,6190540,USC00489905,YELLOWSTONE PARK MAMMOTH,44.9767,-110.6964,1.107164184,1120 ICE RESERVOIR DAM,MT03859,-110.7511685,45.03194036,LANDSLIDE CREEK,0,N,RE, , ,FO,0, ,0,25,0,0,25,0,52,0,52,0,0,L,NR,0,6937.604618,1024,6.2,WESTERN CORDILLERA,6,NORTHWESTERN FORESTED MOUNTAINS,6.2  WESTERN CORDILLERA,6  NORTHWESTERN FORESTED MOUNTAINS
STAID14179000,"BREITENBUSH R ABV FRENCH CR NR DETROIT, OR.",272.5,44.752622,-122.128965,14179000,USC00352277,DETROIT,44.7333,-122.15,2.715889737,DETROIT,OR00004,-122.25,44.716671,NORTH SANTIAM RIVER,14,N,PG,CHK,RK,CHINRO,1953, ,1580,369,463,364,463,176000,455000,155000,455000,3490,438,H,Y,1500000,9859.609142,1024,6.2,WESTERN CORDILLERA,6,NORTHWESTERN FORESTED MOUNTAINS,6.2  WESTERN CORDILLERA,6  NORTHWESTERN FORESTED MOUNTAINS
STAID14152500,"COAST FORK WILLAMETTE RIVER AT LONDON, OREG.",184.7,43.64151,-123.085909,14152500,USC00350781,BLACKBUTTE 1 N,43.5947,-123.0706,5.348937369,COTTAGE GROVE,OR00005,-123.0533,43.715,COAST FORK WILLAMETTE RIVER,6,N,RE,EIK,RSK,CINRO,1942, ,2110,81,103,76,103,40800,50000,33000,50000,1158,104,H,Y,809000,8530.577098,1024,6.2,WESTERN CORDILLERA,6,NORTHWESTERN FORESTED MOUNTAINS,6.2  WESTERN CORDILLERA,6  NORTHWESTERN FORESTED MOUNTAINS
STAID14154500,"ROW RIVER ABOVE PITCHER CREEK NEAR, DORENA, OREG",546.8,43.735957,-122.873402,14154500,USR0000OHAW,HAWLEY BUTTE OREGON,43.7139,-122.835,3.941818169,DORENA,OR00008,-122.9533,43.779999,ROW RIVER,5,N,RE,EIK,RSK,CINRHO,1949, ,3302,135,154,129,154,97500,131000,77500,131000,1884,265,H,Y,3025000,7777.07619,1024,6.2,WESTERN CORDILLERA,6,NORTHWESTERN FORESTED MOUNTAINS,6.2  WESTERN CORDILLERA,6  NORTHWESTERN FORESTED MOUNTAINS
STAID14185000,"SOUTH SANTIAM RIVER BELOW CASCADIA, OR",458.2,44.391792,-122.497582,14185000,USC00351433,CASCADIA,44.3914,-122.4811,1.310337892,GREEN PETER,OR00010,-122.525,44.458328,MIDDLE SANTIAM RIVER,10,N,PG,CHK,RK,CHINRO,1967, ,1517,320,378,319,378,110000,430000,160000,430000,3720,277,H,Y,1142000,7672.252518,1024,6.2,WESTERN CORDILLERA,6,NORTHWESTERN FORESTED MOUNTAINS,6.2  WESTERN CORDILLERA,6  NORTHWESTERN FORESTED MOUNTAINS
STAID14161100,"BLUE RIVER BELOW TIDBITS CREEK, NR BLUE RIVER, OR",118.4,44.217904,-122.265068,14161100,USC00351914,COUGAR DAM,44.1308,-122.2419,9.860186817,BLUE RIVER,OR00013,-122.3283,44.169998,BLUE RIVER,35,N,RE,EIK,RSK,CNIRO,1968, ,1250,270,270,265,270,53200,89000,83000,89000,975,88,H,Y,4873000,7134.913909,1024,6.2,WESTERN CORDILLERA,6,NORTHWESTERN FORESTED MOUNTAINS,6.2  WESTERN CORDILLERA,6  NORTHWESTERN FORESTED MOUNTAINS
STAID14161500,"LOOKOUT CREEK NEAR BLUE RIVER, OR",62.4,44.209571,-122.256733,14161500,USC00351914,COUGAR DAM,44.1308,-122.2419,8.838468752,BLUE RIVER,OR00013,-122.3283,44.169998,BLUE RIVER,35,N,RE,EIK,RSK,CNIRO,1968, ,1250,270,270,265,270,53200,89000,83000,89000,975,88,H,Y,4873000,6946.356501,1024,6.2,WESTERN CORDILLERA,6,NORTHWESTERN FORESTED MOUNTAINS,6.2  WESTERN CORDILLERA,6  NORTHWESTERN FORESTED MOUNTAINS
STAID14144900,"HILLS CR AB HILLS CR RES, NR OAKRIDGE,OREG.",136.8,43.680401,-122.3706,14144900,USR0000OFIE,FIELDS OREGON,43.6806,-122.3019,5.524652154,HILLS CREEK,OR00014,-122.4333,43.71167,MIDDLE FORK WILLAMETTE RIVER,3,N,RE,EIK,RSK,CHINRO,1962, ,2235,328,341,317,341,141600,356000,350600,356000,2735,389,H,Y,10800000,5883.310327,1024,6.2,WESTERN CORDILLERA,6,NORTHWESTERN FORESTED MOUNTAINS,6.2  WESTERN CORDILLERA,6  NORTHWESTERN FORESTED MOUNTAINS
STAID14159200,SO FK MCKENZIE RIVER ABV COUGAR LAKE NR RAINBOW OR,414.3,44.047067,-122.217825,14159200,USC00351914,COUGAR DAM,44.1308,-122.2419,9.507154989,COUGAR,OR00015,-122.2417,44.123329,SOUTH FORK MCKENZIE RIVER,43,N,ER,EIK,RSK,CHINRO,1963, ,1600,473,519,467,519,76000,220000,208000,220000,1280,208,H,Y,13000000,8661.438743,1024,6.2,WESTERN CORDILLERA,6,NORTHWESTERN FORESTED MOUNTAINS,6.2  WESTERN CORDILLERA,6  NORTHWESTERN FORESTED MOUNTAINS
STAID14147500,"N FK OF M FK WILLAMETTE R NR OAKRIDGE,OREG.",640.6,43.758179,-122.509496,14147500,USC00356213,OAKRIDGE FISH HATCHERY,43.7428,-122.4433,5.585261947,OAKRIDGE MILL LOG POND,OR00168,-122.4430389,43.73738098,SALT CREEK,1,N,RE, , ,O,1947, ,4000,13,14,10,14,80,380,380,380,48,1,L,NR,100,5536.527911,1024,6.2,WESTERN CORDILLERA,6,NORTHWESTERN FORESTED MOUNTAINS,6.2  WESTERN CORDILLERA,6  NORTHWESTERN FORESTED MOUNTAINS
STAID14318000,"LITTLE RIVER AT PEEL, OREG.",459.5,43.252618,-123.026172,14318000,USC00354126,IDLEYLD PARK 4 NE,43.3708,-122.9653,14.03384103,LITTLE RIVER LOG POND,OR00203,-123.0901718,43.28102874,LITTLE RIVER,1,N,RE, , ,O,1950, ,4200,17,18,15,18,0,253,253,253,50,0,L,NR,100,5811.856191,1024,6.2,WESTERN CORDILLERA,6,NORTHWESTERN FORESTED MOUNTAINS,6.2  WESTERN CORDILLERA,6  NORTHWESTERN FORESTED MOUNTAINS
STAID14139800,"SOUTH FORK BULL RUN RIVER NEAR BULL RUN, OR",40.7,45.444564,-122.109529,14139800,USC00353770,HEADWORKS PORTLAND WTR B,45.4486,-122.1547,3.552318269,DEVELOPMENT NO. 2 DAM,OR00317,-122.1488278,45.4485306,BULL RUN RIVER,22,N,ER,IEK,RK,HS,1962, ,900,145,145,130,145,69000,25000,21000,25000,418,102,H,Y,0,2925.054574,1024,6.2,WESTERN CORDILLERA,6,NORTHWESTERN FORESTED MOUNTAINS,6.2  WESTERN CORDILLERA,6  NORTHWESTERN FORESTED MOUNTAINS
STAID14138870,"FIR CREEK NEAR BRIGHTWOOD, OR",14,45.480119,-122.025638,14138870,USS0022D03S,South Fork Bull Run,45.45,-122.03,3.366311855,DEVELOPMENT NO. 1 DAM,OR00327,-122.0821889,45.4818333,BULL RUN RIVER,27,N,CNPGVA,HCK,RK,HS,1929, ,970,200,200,97,200,21000,33760,26640,33760,386,75,H,Y,222000,4163.621897,1024,6.2,WESTERN CORDILLERA,6,NORTHWESTERN FORESTED MOUNTAINS,6.2  WESTERN CORDILLERA,6  NORTHWESTERN FORESTED MOUNTAINS
STAID14138900,"NORTH FORK BULL RUN RIVER NEAR MULTNOMAH FALLS, OR",21.7,45.494286,-122.035917,14138900,USS0022D03S,South Fork Bull Run,45.45,-122.03,4.945945768,DEVELOPMENT NO. 1 DAM,OR00327,-122.0821889,45.4818333,BULL RUN RIVER,27,N,CNPGVA,HCK,RK,HS,1929, ,970,200,200,97,200,21000,33760,26640,33760,386,75,H,Y,222000,3673.610954,1024,6.2,WESTERN CORDILLERA,6,NORTHWESTERN FORESTED MOUNTAINS,6.2  WESTERN CORDILLERA,6  NORTHWESTERN FORESTED MOUNTAINS
STAID14158500,"MCKENZIE RIVER AT OUTLET OF CLEAR LAKE, OR",237.1,44.360955,-121.995617,14158500,USS0022E11S,Smith Ridge,44.3,-122.04,7.64213643,CARMEN DIVERSION,OR00539,-122.00255,44.3391,MCKENZIE RIVER,16,N,PGRE,IEK,SK,HR,1963, ,2100,17,0,17,17,6000,260,260,260,30,114,L,Y,0,2483.850262,1024,6.2,WESTERN CORDILLERA,6,NORTHWESTERN FORESTED MOUNTAINS,6.2  WESTERN CORDILLERA,6  NORTHWESTERN FORESTED MOUNTAINS
STAID14158790,"SMITH R AB SMITH R RES NR BELKNAP SPRGS,OREG.",40.6,44.334567,-122.047007,14158790,USS0022E10S,Bear Grass,44.33,-122.09,3.457063495,CARMEN DIVERSION,OR00539,-122.00255,44.3391,MCKENZIE RIVER,16,N,PGRE,IEK,SK,HR,1963, ,2100,17,0,17,17,6000,260,260,260,30,114,L,Y,0,3371.590716,1024,6.2,WESTERN CORDILLERA,6,NORTHWESTERN FORESTED MOUNTAINS,6.2  WESTERN CORDILLERA,6  NORTHWESTERN FORESTED MOUNTAINS
STAID14316495,"BOULDER CREEK NEAR TOKETEE FALLS, OR",79,43.303454,-122.530324,14316495,USC00358536,TOKETEE FALLS,43.275,-122.4497,7.252191449,SODA SPRINGS,OR00555,-122.4937,43.303,NORTH UMPQUA RIVER,40,Y,CNVA,HCK,RK,HR,1952, ,341,124,126,120,126,17500,512,412,512,32,438,H,Y,0,2793.362532,1024,6.2,WESTERN CORDILLERA,6,NORTHWESTERN FORESTED MOUNTAINS,6.2  WESTERN CORDILLERA,6  NORTHWESTERN FORESTED MOUNTAINS
STAID14337870,"WEST BRANCH ELK CREEK NEAR TRAIL,OREG.",39.9,42.710958,-122.749765,14337870,USC00355055,LOST CREEK DAM,42.6722,-122.675,7.477436475,LOST CREEK LAKE FISH STRUCTURE,OR00612,-122.6869,42.66567,ROGUE RIVER,9,N,PG,CEIK,RK,FR,1976, ,100,28,28,28,28,14000,0,0,0,0,0,H,Y,0,6981.825838,1024,6.2,WESTERN CORDILLERA,6,NORTHWESTERN FORESTED MOUNTAINS,6.2  WESTERN CORDILLERA,6  NORTHWESTERN FORESTED MOUNTAINS
STAID14141500,"LITTLE SANDY RIVER NEAR BULL RUN, OREG.",59.9,45.415398,-122.171475,14141500,USC00353770,HEADWORKS PORTLAND WTR B,45.4486,-122.1547,3.917079378,LITTLE SANDY,OR02213,-122.1775056,45.41500555, ,0,N, , , ,FP,0, ,0,15,0,0,15,0,2011,0,2011,0,0,L,NR,0,445.2878581,1024,6.2,WESTERN CORDILLERA,6,NORTHWESTERN FORESTED MOUNTAINS,6.2  WESTERN CORDILLERA,6  NORTHWESTERN FORESTED MOUNTAINS
STAID14046890,"PINE CREEK NEAR CLARNO, OR",168.6,44.910407,-120.440863,14046890,USC00351625,CLARNO,44.8833,-120.5,5.548256257,YOUNGLIFE WASTE B (MIDDLE),OR04030,-120.502709,44.831941, ,0,N,RE, , ,I,0, ,0,15,0,0,15,0,0,25,25,0,0,H,Y,0,9857.007904,1024,6.2,WESTERN CORDILLERA,6,NORTHWESTERN FORESTED MOUNTAINS,6.2  WESTERN CORDILLERA,6  NORTHWESTERN FORESTED MOUNTAINS
STAID10172200,"RED BUTTE CREEK AT FORT DOUGLAS, NEAR SLC, UT",18.7,40.779946,-111.806045,10172200,USC00427185,RED BUTTE 1,40.7667,-111.8333,2.727051768,RED BUTTE DAM,UT10101,-111.8124355,40.78018485,RED BUTTE CREEK,1, ,RE,X,U,S,1930, ,435,0,128,118,128,39,565,385,565,0,7,H,Y,0,506.5707996,1024,6.2,WESTERN CORDILLERA,6,NORTHWESTERN FORESTED MOUNTAINS,6.2  WESTERN CORDILLERA,6  NORTHWESTERN FORESTED MOUNTAINS
STAID12178100,"NEWHALEM CREEK NEAR NEWHALEM, WA",69.7,48.655959,-121.238456,12178100,USC00455840,NEWHALEM,48.6758,-121.2419,2.220668819,GORGE,WA00168,-121.2086,48.69801,SKAGIT RIVER,3,N,CNPGVA,HCK,RK,CHR,1961, ,670,300,300,280,300,145000,9758,8485,9758,241,1193,H,Y,0,5117.69934,1024,6.2,WESTERN CORDILLERA,6,NORTHWESTERN FORESTED MOUNTAINS,6.2  WESTERN CORDILLERA,6  NORTHWESTERN FORESTED MOUNTAINS
STAID12137290,"SOUTH FORK SULTAN RIVER NEAR SULTAN, WA",30.4,47.947326,-121.626783,12137290,USC00458034,STARTUP 1 E,47.8664,-121.7175,11.25597819,CULMBACK,WA00208,-121.6868,47.9746,"SULTAN RIVER,  SKYKOMISH RIVER",16,N,ER,IEK,RSK,CHRS,1983, ,640,262,262,242,262,57132,193440,153260,193440,1870,68,H,Y,740000,5206.277444,1024,6.2,WESTERN CORDILLERA,6,NORTHWESTERN FORESTED MOUNTAINS,6.2  WESTERN CORDILLERA,6  NORTHWESTERN FORESTED MOUNTAINS
STAID12147500,"NORTH FORK TOLT RIVER NEAR CARNATION, WA",102.9,47.712324,-121.788727,12147500,USC00458508,TOLT S FK RSVR,47.7,-121.6908,7.45459538,TOLT RIVER REGULATED BASIN WEST DAM,WA00237,-121.7911307,47.70383,SOUTH FORK TOLT-OFFSTREAM,10,N,RE,X,U,HS,1962, ,320,35,43,35,43,0,1100,882,1100,37,6,S,N,0,960.068699,1024,6.2,WESTERN CORDILLERA,6,NORTHWESTERN FORESTED MOUNTAINS,6.2  WESTERN CORDILLERA,6  NORTHWESTERN FORESTED MOUNTAINS
STAID12115000,"CEDAR RIVER NEAR CEDAR FALLS, WA",102.8,47.370107,-121.625101,12115000,USS0021B21S,Mount Gardner,47.36,-121.57,4.29941896,MORSE LAKE DAM,WA00256,-121.725455,47.409604,CEDAR RIVER,3,N,PG,HC,SK,S,1904, ,108,18,18,18,18,0,75000,75000,75000,1682,81,L,N,0,8388.434317,1024,6.2,WESTERN CORDILLERA,6,NORTHWESTERN FORESTED MOUNTAINS,6.2  WESTERN CORDILLERA,6  NORTHWESTERN FORESTED MOUNTAINS
STAID12189500,"SAUK RIVER NEAR SAUK, WA",1855.3,48.424559,-121.568463,12189500,USW00004223,DARRINGTON 21 NNE,48.5406,-121.4461,15.74263164,TEXAS POND,WA00330,-121.5846,48.3715,TRIB OF RINKER CREEK,12,N,RE,IX,U,R,1970, ,210,0,0,14,14,424,86,0,86,0,0,L,NR,200,6007.652761,1024,6.2,WESTERN CORDILLERA,6,NORTHWESTERN FORESTED MOUNTAINS,6.2  WESTERN CORDILLERA,6  NORTHWESTERN FORESTED MOUNTAINS
STAID06037500,Madison River near West Yellowstone MT,1126.2,44.656872,-111.068274,6037500,USC00248858,W YELLOWSTONE GATEWAY,44.6567,-111.0903,1.74227928,ALKALI CREEK,WY01148,-111.015,44.715,ALKALI CREEK,34,N,RE,HEK,SZ,IP,1950, ,685,36,36,31,36,0,114,66,114,8,5,L,NR,25420,7582.36368,1024,6.2,WESTERN CORDILLERA,6,NORTHWESTERN FORESTED MOUNTAINS,6.2  WESTERN CORDILLERA,6  NORTHWESTERN FORESTED MOUNTAINS
STAID06036905,Firehole River near West Yellowstone MT,676.9,44.62021,-110.86299,6036905,USC00483595,FOUNTAIN,44.5667,-110.8167,6.988409079,EWEN,WY01157,-110.8977777,44.57638889,BEAVER CREEK,15,N,RE,HEK,SZ,I,1946, ,235,40,40,35,40,0,184,132,184,9,0,L,NR,21190,5518.91865,1024,6.2,WESTERN CORDILLERA,6,NORTHWESTERN FORESTED MOUNTAINS,6.2  WESTERN CORDILLERA,6  NORTHWESTERN FORESTED MOUNTAINS
STAID09196500,"PINE CREEK ABOVE FREMONT LAKE, WY",194.9,43.030502,-109.770153,9196500,USS0009F23S,Elkhart Park G.S.,43.01,-109.76,2.424540871,WILLOW LAKE,WY01192,-109.7008333,42.99333333,LAKE CREEK,0,Y,RE,HEK,SZ,IP,1955, ,320,20,20,14,20,625,32125,22630,32125,1958,32,S,N,2560,6726.783007,1024,6.2,WESTERN CORDILLERA,6,NORTHWESTERN FORESTED MOUNTAINS,6.2  WESTERN CORDILLERA,6  NORTHWESTERN FORESTED MOUNTAINS
STAID13010065,SNAKE RIVER AB JACKSON LAKE AT FLAGG RANCH WY,1222.3,44.098889,-110.6675,13010065,USS0010E12S,Snake River Station,44.13,-110.67,3.465137768,INDIAN LAKE,WY01239,-110.6583,44.06694444,INDIAN LAKE BASIN,36,N,RE,HEK,SZ,I,1954, ,500,10,13,9,13,1340,2034,904,2034,252,1,L,NR,15000,3617.295576,1024,6.2,WESTERN CORDILLERA,6,NORTHWESTERN FORESTED MOUNTAINS,6.2  WESTERN CORDILLERA,6  NORTHWESTERN FORESTED MOUNTAINS
STAID06036805,"Firehole River at Old Faithful, YNP",103.1,44.45966,-110.82243,6036805,USC00486845,OLD FAITHFUL,44.4569,-110.8328,0.878388748,ALLEE,WY01537,-110.7933,44.42083333,RUSTY DRAW TRIB. OF DEER CREEK,0,N,RE,HEK,SZ,IP,1978, ,1085,7,7,5,7,0,83,54,83,15,4,L,NR,8400,4835.02752,1024,6.2,WESTERN CORDILLERA,6,NORTHWESTERN FORESTED MOUNTAINS,6.2  WESTERN CORDILLERA,6  NORTHWESTERN FORESTED MOUNTAINS
STAID06187950,Soda Butte Cr nr Lamar Ranger Station YNP,261.2,44.868273,-110.165469,6187950,USC00488340,SODA BUTTE,44.8833,-110.15,2.068268887,BARKER-HUTTON STATE  13-7-56-83,WY02527,-110.264777,44.837888,PRARIE DOG CREEK,2,N,RE,EK,S,DI,2009, ,350,17,17,15,17,228,133,104,133,14,0,L,NR,11500,8117.215957,1024,6.2,WESTERN CORDILLERA,6,NORTHWESTERN FORESTED MOUNTAINS,6.2  WESTERN CORDILLERA,6  NORTHWESTERN FORESTED MOUNTAINS
STAID11276900,TUOLUMNE R BL EARLY INTAKE NR MATHER CA,1255.1,37.881591,-119.970182,11276900,USC00045400,MATHER,37.885,-119.8561,10.01924365,EARLY INTAKE,CA00120,-119.9569,37.8755,TUOLUMNE RIVER,23,Y,VA,X,R,CHS,1925, ,262,56,0,46,56,0,0,115,115,7,488,L,Y,16564,1292.752883,1024,6.2,WESTERN CORDILLERA,6,NORTHWESTERN FORESTED MOUNTAINS,6.2  WESTERN CORDILLERA,6  NORTHWESTERN FORESTED MOUNTAINS
STAID11278000,ELEANOR C NR HETCH HETCHY CA,207.7,37.969088,-119.882124,11278000,USC00044679,LAKE ELEANOR,37.9667,-119.8833,0.284842901,LAKE ELEANOR,CA00121,-119.8818,37.974,ELEANOR CREEK,30,N,MV,X,R,HS,1918, ,1260,61,0,61,61,0,0,28600,28600,953,80,H,Y,11640,545.3533339,1024,6.2,WESTERN CORDILLERA,6,NORTHWESTERN FORESTED MOUNTAINS,6.2  WESTERN CORDILLERA,6  NORTHWESTERN FORESTED MOUNTAINS
STAID11276500,TUOLUMNE R NR HETCH HETCHY CA,1179.1,37.937421,-119.798233,11276500,USC00043939,HETCH HETCHY,37.9614,-119.7831,2.978267259,O' SHAUGHNESSY,CA00123,-119.789,37.9484,TUOLUMNE RIVER,33,N,PG,X,R,HS,1923, ,900,312,0,306,312,0,0,360000,360000,1972,459,H,Y,662605,1438.528855,1024,6.2,WESTERN CORDILLERA,6,NORTHWESTERN FORESTED MOUNTAINS,6.2  WESTERN CORDILLERA,6  NORTHWESTERN FORESTED MOUNTAINS
STAID11277300,CHERRY C BL VALLEY DAM NR HETCH HETCHY CA,305.2,37.967699,-119.917403,11277300,USC00041697,CHERRY VALLEY DAM,37.9747,-119.9161,0.786810006,CHERRY VALLEY,CA00125,-119.9147,37.9743,CHERRY CREEK,30,Y,RE,X,R,CHS,1956, ,2630,315,0,302,315,0,0,273500,273500,1535,114,H,Y,7000000,765.8233013,1024,6.2,WESTERN CORDILLERA,6,NORTHWESTERN FORESTED MOUNTAINS,6.2  WESTERN CORDILLERA,6  NORTHWESTERN FORESTED MOUNTAINS
STAID103366092,"UPPER TRUCKEE RV AT HWY 50 ABV MEYERS, CA",100.9,38.848519,-120.027128,103366092,USR0000CMEY,MEYERS CALIFORNIA,38.8489,-120.0181,0.782964249,ECHO LAKE,CA00374,-120.0443,38.8349,ECHO CREEK,9,Y,RC, , ,DHIR,1992, ,321,12,14,12,14,1100,1860,1860,1860,338,5,H,Y,0,2061.986777,1024,6.2,WESTERN CORDILLERA,6,NORTHWESTERN FORESTED MOUNTAINS,6.2  WESTERN CORDILLERA,6  NORTHWESTERN FORESTED MOUNTAINS
STAID06054500,Missouri River at Toston MT,38074.7,46.14604,-111.42052,6054500,USC00248314,TOSTON 1 W,46.1667,-111.4667,4.234326228,BROADWATER DAM,MT00016,-111.4073,46.1201,MISSOURI RIVER,5,N,CNPG, , ,HI,1940,1989,705,24,50,47,50,68900,6460,4100,6460,327,14660,H,Y,0,3040.578822,1024,6.2,WESTERN CORDILLERA,6,NORTHWESTERN FORESTED MOUNTAINS,6.2  WESTERN CORDILLERA,6  NORTHWESTERN FORESTED MOUNTAINS
STAID06038500,Madison River bl Hebgen Lake nr Grayling MT,2412,44.866593,-111.338288,6038500,USC00244038,HEBGEN DAM,44.8667,-111.3392,0.072852353,HEBGEN DAM,MT00134,-111.3354,44.8623,MADISON RIVER,55,N,RE, , ,CHRS,1915, ,721,88,120,75,120,4400,525620,386000,525620,13000,905,H,Y,0,524.1727871,1024,6.2,WESTERN CORDILLERA,6,NORTHWESTERN FORESTED MOUNTAINS,6.2  WESTERN CORDILLERA,6  NORTHWESTERN FORESTED MOUNTAINS
STAID12372000,Flathead River near Polson MT,16725.7,47.680216,-114.246788,12372000,USC00246640,POLSON KERR DAM,47.6775,-114.2419,0.474471005,SKQ,MT00226,-114.2331,47.6774,FLATHEAD RIVER,45,N,PGREVA,HCK,RK,HR,1938, ,675,200,200,187,200,120000,0,1791000,1791000,124800,7096,H,Y,0,1020.618752,1024,6.2,WESTERN CORDILLERA,6,NORTHWESTERN FORESTED MOUNTAINS,6.2  WESTERN CORDILLERA,6  NORTHWESTERN FORESTED MOUNTAINS
STAID06041000,Madison River bl Ennis Lake nr Mcallister MT,5729.3,45.490206,-111.634138,6041000,USC00246157,NORRIS MADISON PWR HOUSE,45.4875,-111.6336,0.303802133,MADISON DAM,MT00561,-111.6374,45.47,MADISON RIVER,34,N,TC, , ,CHRS,1907,1970,257,39,38,33,39,7700,42053,41917,42053,3900,2181,H,Y,0,2259.130905,1024,6.2,WESTERN CORDILLERA,6,NORTHWESTERN FORESTED MOUNTAINS,6.2  WESTERN CORDILLERA,6  NORTHWESTERN FORESTED MOUNTAINS
STAID12353000,Clark Fork below Missoula MT,23353,46.86909,-114.126779,12353000,USR0000MMIS,MISSOULA FTS MONTANA,46.85,-114.05,6.211752808,KONA RANCH,MT01149,-114.1249711,46.88783787,TR-CLARK FORK RIVER,0,N,RE, , ,I,1959, ,325,29,0,26,29,118,65,50,65,0,1,S,NR,0,2087.563035,1024,6.2,WESTERN CORDILLERA,6,NORTHWESTERN FORESTED MOUNTAINS,6.2  WESTERN CORDILLERA,6  NORTHWESTERN FORESTED MOUNTAINS
STAID12324200,Clark Fork at Deer Lodge MT,2591.4,46.397705,-112.742817,12324200,USC00242273,DEER LODGE,46.3833,-112.7333,1.760231571,DEER LODGE SEWAGE LAGOON,MT01421,-112.7409,46.4276,TR-CLARK FORK,1,N,RE, , ,O,1960, ,1500,8,0,8,8,0,98,98,98,0,0,L,NR,0,3325.322901,1024,6.2,WESTERN CORDILLERA,6,NORTHWESTERN FORESTED MOUNTAINS,6.2  WESTERN CORDILLERA,6  NORTHWESTERN FORESTED MOUNTAINS
STAID12362500,S F Flathead River nr Columbia Falls MT,4318.2,48.356631,-114.037618,12362500,USC00244328,HUNGRY HORSE DAM,48.3425,-114.0217,1.962825915,LION LAKE DAM,MT01571,-114.03234,48.368992,WHELP CREEK,2,N,RE, , ,FR,1948, ,200,22,0,14,22,158,1621,588,1621,43,200,S,NR,0,1422.90347,1024,6.2,WESTERN CORDILLERA,6,NORTHWESTERN FORESTED MOUNTAINS,6.2  WESTERN CORDILLERA,6  NORTHWESTERN FORESTED MOUNTAINS
STAID12340000,Blackfoot River near Bonner MT,5925.4,46.89965,-113.756487,12340000,USC00246685,POTOMAC,46.8767,-113.5625,14.96096436,LEPUS,MT03490,-113.6269706,46.89734512,TR-UNION CREEK,19,N,RE, , ,I,1956, ,350,30,0,30,30,0,82,18,82,0,0,L,NR,0,9308.349691,1024,6.2,WESTERN CORDILLERA,6,NORTHWESTERN FORESTED MOUNTAINS,6.2  WESTERN CORDILLERA,6  NORTHWESTERN FORESTED MOUNTAINS
STAID12334510,Rock Creek near Clinton MT,2314,46.722427,-113.68315,12334510,USC00241831,CLINTON 6 SE,46.7169,-113.6672,1.362389626,POLLOCKS JH VALLEY OF THE MOON,MT03491,-113.7181958,46.68249064,GIBERT CREEK,5,N,RE, , ,P,1960, ,350,25,0,25,25,0,140,83,140,0,0,L,NR,0,5107.964972,1024,6.2,WESTERN CORDILLERA,6,NORTHWESTERN FORESTED MOUNTAINS,6.2  WESTERN CORDILLERA,6  NORTHWESTERN FORESTED MOUNTAINS
STAID12323800,Clark Fork near Galen MT,1690.3,46.208259,-112.76726,12323800,USC00248687,WARM SPRINGS CREEK,46.1833,-112.75,3.076886102,BABCOCK,MT03705,-112.8009023,46.20967641,TR-LOST CREEK,5,N,RE, , ,I,1953, ,500,15,0,15,15,0,93,48,93,0,0,L,NR,0,2449.159962,1024,6.2,WESTERN CORDILLERA,6,NORTHWESTERN FORESTED MOUNTAINS,6.2  WESTERN CORDILLERA,6  NORTHWESTERN FORESTED MOUNTAINS
STAID12301300,Tobacco River near Eureka MT,1085,48.893576,-115.087946,12301300,USC00242827,EUREKA RS,48.8978,-115.0644,1.784216953,EUREKA HOLDING POND DIKE,MT03839,-115.0728,48.8828,TR-TOBACCO RIVE,1,N,RE,HEK, ,O,1982,1995S;1999S,400,40,0,36,40,0,96,96,96,0,0,S,NR,0,1595.246281,1024,6.2,WESTERN CORDILLERA,6,NORTHWESTERN FORESTED MOUNTAINS,6.2  WESTERN CORDILLERA,6  NORTHWESTERN FORESTED MOUNTAINS
STAID06204070,W Rosebud Cr at Emerald Lk Campground nr Roscoe,172,45.254387,-109.699895,6204070,USC00245961,MYSTIC LAKE,45.2436,-109.7311,2.721446101,RE-REGULATING,MT83001,-109.7071,45.2518,WEST ROSEBUD CREEK,22,N,RE, , ,OR,1979, ,410,15,0,0,15,4800,475,470,475,49,52,L,NR,0,604.3543064,1024,6.2,WESTERN CORDILLERA,6,NORTHWESTERN FORESTED MOUNTAINS,6.2  WESTERN CORDILLERA,6  NORTHWESTERN FORESTED MOUNTAINS
STAID14181500,"NORTH SANTIAM RIVER AT NIAGARA, OR",1171,44.752622,-122.298412,14181500,USC00355556,MILL CITY,44.75,-122.25,3.834062312,BIG CLIFF,OR00003,-122.2883,44.74667,NORTH SANTIAM RIVER,11,N,PG,CHK,RK,H,1953, ,280,131,172,101,172,176000,5930,2630,5930,141,452,H,Y,89000,1003.41308,1024,6.2,WESTERN CORDILLERA,6,NORTHWESTERN FORESTED MOUNTAINS,6.2  WESTERN CORDILLERA,6  NORTHWESTERN FORESTED MOUNTAINS
STAID14162200,"BLUE RIVER AT BLUE RIVER, OR",227.6,44.162348,-122.333119,14162200,USC00351914,COUGAR DAM,44.1308,-122.2419,8.079557407,BLUE RIVER,OR00013,-122.3283,44.169998,BLUE RIVER,35,N,RE,EIK,RSK,CNIRO,1968, ,1250,270,270,265,270,53200,89000,83000,89000,975,88,H,Y,4873000,923.8746877,1024,6.2,WESTERN CORDILLERA,6,NORTHWESTERN FORESTED MOUNTAINS,6.2  WESTERN CORDILLERA,6  NORTHWESTERN FORESTED MOUNTAINS
STAID14145500,"M F WILLAMETTE R AB SALT CR., NR OAKRIDGE, OREG",1017,43.722068,-122.438659,14145500,USC00356213,OAKRIDGE FISH HATCHERY,43.7428,-122.4433,2.335256586,HILLS CREEK,OR00014,-122.4333,43.71167,MIDDLE FORK WILLAMETTE RIVER,3,N,RE,EIK,RSK,CHINRO,1962, ,2235,328,341,317,341,141600,356000,350600,356000,2735,389,H,Y,10800000,1225.404384,1024,6.2,WESTERN CORDILLERA,6,NORTHWESTERN FORESTED MOUNTAINS,6.2  WESTERN CORDILLERA,6  NORTHWESTERN FORESTED MOUNTAINS
STAID14159500,"SOUTH FORK MCKENZIE RIVER NEAR RAINBOW, OR",539.6,44.135958,-122.248391,14159500,USC00351914,COUGAR DAM,44.1308,-122.2419,0.772854228,COUGAR,OR00015,-122.2417,44.123329,SOUTH FORK MCKENZIE RIVER,43,N,ER,EIK,RSK,CHINRO,1963, ,1600,473,519,467,519,76000,220000,208000,220000,1280,208,H,Y,13000000,1491.721012,1024,6.2,WESTERN CORDILLERA,6,NORTHWESTERN FORESTED MOUNTAINS,6.2  WESTERN CORDILLERA,6  NORTHWESTERN FORESTED MOUNTAINS
STAID11507500,"LINK RIVER AT KLAMATH FALLS, OR",9786.5,42.223478,-121.794171,11507500,USC00354506,KLAMATH FALLS 2 SSW,42.2008,-121.7814,2.732239052,WEST SIDE,OR00180,-121.8014,42.2336,KLAMATH RIVER,1,Y,CBPG,HCK,RK,HI,1892, ,435,22,22,8,22,8500,523700,523700,523700,85000,3800,L,Y,2200,1255.312436,1024,6.2,WESTERN CORDILLERA,6,NORTHWESTERN FORESTED MOUNTAINS,6.2  WESTERN CORDILLERA,6  NORTHWESTERN FORESTED MOUNTAINS
STAID14319500,"NORTH UMPQUA RIVER AT WINCHESTER, OR",3514.6,43.27206,-123.412299,14319500,USC00359464,WINCHESTER 3 W F STN,43.2833,-123.4167,1.299620306,WINCHESTER DAM,OR00263,-123.3539276,43.28398895,NORTH UMPQUA RIVER,14,N,OT, , ,R,1904, ,485,17,17,17,17,2200,700,700,700,27,1344,H,Y,100,4645.3792,1024,6.2,WESTERN CORDILLERA,6,NORTHWESTERN FORESTED MOUNTAINS,6.2  WESTERN CORDILLERA,6  NORTHWESTERN FORESTED MOUNTAINS
STAID14138720,"BULL RUN RIVER AT LOWER FLUME NR BRIGHTWOOD, OR",13.1,45.470952,-121.865357,14138720,USS0021D33S,Blazed Alder,45.43,-121.86,4.572788318,BULL RUN LAKE DAM,OR00300,-121.839119,45.46281814,BULL RUN RIVER,33,Y,RE, , ,S,1965, ,150,55,57,53,57,1100,14500,10000,14500,445,4,L,NR,100,2133.107334,1024,6.2,WESTERN CORDILLERA,6,NORTHWESTERN FORESTED MOUNTAINS,6.2  WESTERN CORDILLERA,6  NORTHWESTERN FORESTED MOUNTAINS
STAID14339000,"ROGUE RIVER AT DODGE BRIDGE, NEAR EAGLE POINT, OR",3154.8,42.524847,-122.84282,14339000,USC00358300,TABLEROCK,42.4667,-122.8833,7.267689656,HAMMEL NO. 2,OR00304,-122.8098907,42.54249954,MURDERERS GULCH,0,N,RE, , ,I,1957, ,600,20,24,18,24,200,50,50,50,10,2,S,NR,100,3210.25506,1024,6.2,WESTERN CORDILLERA,6,NORTHWESTERN FORESTED MOUNTAINS,6.2  WESTERN CORDILLERA,6  NORTHWESTERN FORESTED MOUNTAINS
STAID14140000,"BULL RUN RIVER NEAR BULL RUN, OR",278.1,45.437342,-122.178975,14140000,USC00353770,HEADWORKS PORTLAND WTR B,45.4486,-122.1547,2.270187288,SPILLWAY DAM,OR00317,-122.1538306,45.4446667,BULL RUN,22,N,RE,HCK,SK,HS,1962, ,450,180,20,20,180,73000,25000,21000,25000,418,102,H,Y,0,2022.879689,1024,6.2,WESTERN CORDILLERA,6,NORTHWESTERN FORESTED MOUNTAINS,6.2  WESTERN CORDILLERA,6  NORTHWESTERN FORESTED MOUNTAINS
STAID14158850,"MCKENZIE R BLW TRAIL BR DAM NR BELKNAP SPRINGS, OR",480.1,44.2679,-122.049783,14158850,USC00350652,BELKNAP SPRINGS 8 N,44.2867,-122.0389,2.262901783,TRAIL BRIDGE SADDLE DIKE,OR00540,-122.0476667,44.2729333,MCKENZIE RIVER,0,N,RE,HEK,K,HR,1963, ,1000,35,0,35,35,0,2263,2263,2263,73,184,H,Y,0,581.1096617,1024,6.2,WESTERN CORDILLERA,6,NORTHWESTERN FORESTED MOUNTAINS,6.2  WESTERN CORDILLERA,6  NORTHWESTERN FORESTED MOUNTAINS
STAID14092500,"DESCHUTES RIVER NEAR MADRAS, OR",20857.1,44.725952,-121.246994,14092500,USC00356532,PELTON DAM,44.7275,-121.2506,0.332841548,PELTON REGULATING,OR00547,-121.2458,44.7247,DESCHUTES RIVER,3,Y,ERPG, , ,HO,1958, ,1067,40,40,25,40,30000,3500,3500,3500,210,7636,H,Y,0,166.2176906,1024,6.2,WESTERN CORDILLERA,6,NORTHWESTERN FORESTED MOUNTAINS,6.2  WESTERN CORDILLERA,6  NORTHWESTERN FORESTED MOUNTAINS
STAID14163150,"MCKENZIE RIVER BLW LEABURG DAM, NR LEABURG, OR",2668.2,44.123738,-122.627572,14163150,USR0000OTRO,TROUT CREEK OREGON,44.1111,-122.575,4.425772484,LEABURG,OR00553,-122.6083,44.1383,MCKENZIE RIVER,3,N,CNPG,HCK,RK,HR,1930, ,400,20,0,20,20,67000,345,345,345,68,1038,L,Y,0,2172.6942,1024,6.2,WESTERN CORDILLERA,6,NORTHWESTERN FORESTED MOUNTAINS,6.2  WESTERN CORDILLERA,6  NORTHWESTERN FORESTED MOUNTAINS
STAID14316500,"N UMPQUA RIVER ABV COPELAND CK NR TOKETEE FALLS,OR",1217.3,43.295954,-122.536713,14316500,USC00358536,TOKETEE FALLS,43.275,-122.4497,7.418567212,SODA SPRINGS,OR00555,-122.4937,43.303,NORTH UMPQUA RIVER,40,Y,CNVA,HCK,RK,HR,1952, ,341,124,126,120,126,17500,512,412,512,32,438,H,Y,0,3372.099651,1024,6.2,WESTERN CORDILLERA,6,NORTHWESTERN FORESTED MOUNTAINS,6.2  WESTERN CORDILLERA,6  NORTHWESTERN FORESTED MOUNTAINS
STAID11509500,"KLAMATH RIVER AT KENO, OR",18081.2,42.133199,-121.962231,11509500,USC00354403,KENO,42.0944,-121.9022,6.567515738,KENO,OR00558,-121.9475,42.1347,KLAMATH RIVER,0,Y,PGRE,HCK,RK,HO,1967, ,723,41,41,26,41,25000,18500,18500,18500,1860,3920,L,Y,0,1157.035494,1024,6.2,WESTERN CORDILLERA,6,NORTHWESTERN FORESTED MOUNTAINS,6.2  WESTERN CORDILLERA,6  NORTHWESTERN FORESTED MOUNTAINS
STAID14330000,"ROGUE RIVER BELOW PROSPECT, OR",985.7,42.730405,-122.516425,14330000,USC00356907,PROSPECT 2 SW,42.7342,-122.5164,0.421989687,NORTH FORK DIVERSION DAM,OR00560,-122.4972,42.7564,NORTH FORK ROGUE R(OFFSTREAM),0,N,CNPGRE,HCK,RK,H,1928, ,384,45,55,0,55,27325,450,250,450,3,312,L,NR,0,3244.250136,1024,6.2,WESTERN CORDILLERA,6,NORTHWESTERN FORESTED MOUNTAINS,6.2  WESTERN CORDILLERA,6  NORTHWESTERN FORESTED MOUNTAINS
STAID14334700,"S FK ROGUE R SOUTH OF PROSPECT, OREG.",637.6,42.71235,-122.506702,14334700,USC00356907,PROSPECT 2 SW,42.7342,-122.5164,2.555503805,NORTH FORK DIVERSION DAM,OR00560,-122.4972,42.7564,NORTH FORK ROGUE R(OFFSTREAM),0,N,CNPGRE,HCK,RK,H,1928, ,384,45,55,0,55,27325,450,250,450,3,312,L,NR,0,4947.271486,1024,6.2,WESTERN CORDILLERA,6,NORTHWESTERN FORESTED MOUNTAINS,6.2  WESTERN CORDILLERA,6  NORTHWESTERN FORESTED MOUNTAINS
STAID14337600,"ROGUE RIVER NEAR MCLEOD, OR",2438.1,42.655404,-122.715041,14337600,USC00355055,LOST CREEK DAM,42.6722,-122.675,3.769240265,LOST CREEK LAKE FISH STRUCTURE,OR00612,-122.6869,42.66567,ROGUE RIVER,9,N,PG,CEIK,RK,FR,1976, ,100,28,28,28,28,14000,0,0,0,0,0,H,Y,0,2449.674792,1024,6.2,WESTERN CORDILLERA,6,NORTHWESTERN FORESTED MOUNTAINS,6.2  WESTERN CORDILLERA,6  NORTHWESTERN FORESTED MOUNTAINS
STAID14338000,"ELK CREEK NEAR TRAIL, OR",335.9,42.678736,-122.741987,14338000,USC00355055,LOST CREEK DAM,42.6722,-122.675,5.524273081,LOST CREEK LAKE FISH STRUCTURE,OR00612,-122.6869,42.66567,ROGUE RIVER,9,N,PG,CEIK,RK,FR,1976, ,100,28,28,28,28,14000,0,0,0,0,0,H,Y,0,4484.386559,1024,6.2,WESTERN CORDILLERA,6,NORTHWESTERN FORESTED MOUNTAINS,6.2  WESTERN CORDILLERA,6  NORTHWESTERN FORESTED MOUNTAINS
STAID14362000,"APPLEGATE RIVER NEAR COPPER, OR",580.2,42.063736,-123.111436,14362000,USR0000OSQU,SQUAW PEAK OREGON,42.0667,-123.0167,7.827321441,APPLEGATE,OR00624,-123.1133,42.055,APPLEGATE RIVER,20,N,ER,EIK,KR,CFIRO,1980, ,1200,242,242,235,242,93800,89300,82200,89300,1041,223,H,Y,2812000,981.52204,1024,6.2,WESTERN CORDILLERA,6,NORTHWESTERN FORESTED MOUNTAINS,6.2  WESTERN CORDILLERA,6  NORTHWESTERN FORESTED MOUNTAINS
STAID14046778,"BRIDGE CR ABV COYOTE CANYON NR MITCHELL, OR",691.1,44.726799,-120.301965,14046778,USR0000OMEY,MEYERS CANYON OREGON,44.61,-120.1819,16.08803691,PAINTED HILLS RESERVOIR,OR00658,-120.277625,44.66913333,BEAR AND BRIDGE CREEKS,20,N,RE, , ,I,1979, ,560,42,45,36,45,2884,1040,800,1040,3,0,L,NR,100,6660.823034,1024,6.2,WESTERN CORDILLERA,6,NORTHWESTERN FORESTED MOUNTAINS,6.2  WESTERN CORDILLERA,6  NORTHWESTERN FORESTED MOUNTAINS
STAID14359000,"ROGUE RIVER AT RAYGOLD NEAR CENTRAL POINT, OR",5310.4,42.437346,-122.987268,14359000,USC00355656,MODOC ORCHARD,42.45,-122.8833,8.64638256,MCCORMICK RESERVOIR,OR02356,-122.9695129,42.40925979,"ROGUE RIVER, TRIB TO",2,N,RE, , ,I,1954, ,726,24,24,20,24,200,38,38,38,5,1,S,NR,100,3409.399063,1024,6.2,WESTERN CORDILLERA,6,NORTHWESTERN FORESTED MOUNTAINS,6.2  WESTERN CORDILLERA,6  NORTHWESTERN FORESTED MOUNTAINS
STAID10133800,"EAST CANYON CREEK NEAR JEREMY RANCH, UT",147.8,40.75967,-111.564091,10133800,USS0011J52S,Parley's Summit,40.76,-111.63,5.551301559,JEREMY RANCH,UT00473,-111.5907599,40.76018576,TRIB. TO EAST CANYON CREEK,1, ,RE,X,U,I,0, ,500,0,44,24,44,0,0,17,17,0,0,S,N,0,2115.638467,1024,6.2,WESTERN CORDILLERA,6,NORTHWESTERN FORESTED MOUNTAINS,6.2  WESTERN CORDILLERA,6  NORTHWESTERN FORESTED MOUNTAINS
STAID09234500,"GREEN RIVER NEAR GREENDALE, UT",39136.6,40.908293,-109.422914,9234500,USC00422864,FLAMING GORGE,40.9317,-109.4117,2.768037214,FLAMING GORGE,UT10121,-109.4219,40.9149,GREEN RIVER,35,N,CNVA,A,RK,CHRS,1963, ,1285,502,502,448,502,28800,4003100,3788900,4003100,43820,15000,H,Y,986600,737.5061622,1024,6.2,WESTERN CORDILLERA,6,NORTHWESTERN FORESTED MOUNTAINS,6.2  WESTERN CORDILLERA,6  NORTHWESTERN FORESTED MOUNTAINS
STAID10133650,"E CANYON CR BL I-80 REST STOP NR PARK CITY, UT",89.6,40.723838,-111.519644,10133650,USC00427942,SNYDERVILLE,40.7039,-111.5367,2.642273706,"BEAR HOLLOW VILLAGE, LLC",UT50281,-111.5501557,40.71419641, ,0, ,RE,X,U,R,0, ,688,0,7,4,7,49,0,39,39,0,0,S,N,0,2647.715552,1024,6.2,WESTERN CORDILLERA,6,NORTHWESTERN FORESTED MOUNTAINS,6.2  WESTERN CORDILLERA,6  NORTHWESTERN FORESTED MOUNTAINS
STAID10129900,"SILVER CREEK NEAR SILVER CREEK JUNCTION, UT",41.1,40.73523,-111.47603,10129900,USC00426650,PARK CITY MEADOWS,40.6833,-111.5,6.117612997,"PIVOTAL PROMONTORY, LLC #2",UT53408,-111.4638202,40.71392635, ,0, ,RE,X,U,I,0, ,1060,0,17,12,17,0,0,52,52,0,0,L,NR,0,2557.550799,1024,6.2,WESTERN CORDILLERA,6,NORTHWESTERN FORESTED MOUNTAINS,6.2  WESTERN CORDILLERA,6  NORTHWESTERN FORESTED MOUNTAINS
STAID12137800,"SULTAN RIVER BELOW DIVERSION DAM NEAR SULTAN, WA",198.5,47.959268,-121.797345,12137800,USC00458034,STARTUP 1 E,47.8664,-121.7175,11.9183769,CHAPLAIN LAKE SOUTH DAM,WA00197,-121.830974,47.944367,CHAPLAIN CREEK,8,N,RE,HEK,SK,S,1930,1993O;,900,50,75,50,75,660,17800,16200,17800,450,3,H,Y,0,2893.214354,1024,6.2,WESTERN CORDILLERA,6,NORTHWESTERN FORESTED MOUNTAINS,6.2  WESTERN CORDILLERA,6  NORTHWESTERN FORESTED MOUNTAINS
STAID12148300,"SF TOLT RIVER BL REGULATING BASIN NR CARNATION, WA",76.8,47.696768,-121.787338,12148300,USC00458508,TOLT S FK RSVR,47.7,-121.6908,7.233633337,TOLT RIVER REGULATED BASIN WEST DAM,WA00237,-121.7911307,47.70383,SOUTH FORK TOLT-OFFSTREAM,10,N,RE,X,U,HS,1962, ,320,35,43,35,43,0,1100,882,1100,37,6,S,N,0,828.9612915,1024,6.2,WESTERN CORDILLERA,6,NORTHWESTERN FORESTED MOUNTAINS,6.2  WESTERN CORDILLERA,6  NORTHWESTERN FORESTED MOUNTAINS
STAID12116500,"CEDAR RIVER AT CEDAR FALLS, WA",220.1,47.417047,-121.792054,12116500,USC00451233,CEDAR LAKE,47.4144,-121.7561,2.721240885,MASONRY DAM,WA00255,-121.75259,47.41221,CEDAR RIVER,2,N,VA,HC,SK,HS,1914, ,980,215,225,215,225,74400,175000,93900,175000,280,81,H,Y,0,2862.154592,1024,6.2,WESTERN CORDILLERA,6,NORTHWESTERN FORESTED MOUNTAINS,6.2  WESTERN CORDILLERA,6  NORTHWESTERN FORESTED MOUNTAINS
STAID11162620,PILARCITOS C BL STONE DAM NR HILLSBOROUGH CA,17.3,37.524661,-122.399418,11162620,USR0000CSVA,SPRING VALLEY CALIFORNIA,37.5625,-122.4364,5.322984008,LOWER CRYSTAL SPRINGS,CA00127,-122.3616,37.5283,SAN MATEO CREEK,2,N,PG,X,R,S,1888, ,600,149,0,139,149,0,0,57910,57910,1323,29,H,Y,157200,3176.438595,1025,7.1,MARINE WEST COAST FOREST,7,MARINE WEST COAST FOREST,7.1  MARINE WEST COAST FOREST,7  MARINE WEST COAST FOREST
STAID11162753,SAN MATEO C BL LO CRYSTAL SP RES NR SAN MATEO CA,74.8,37.52944,-122.35833,11162753,USC00047864,SAN MATEO,37.5333,-122.3,5.161404361,LOWER CRYSTAL SPRINGS,CA00127,-122.3616,37.5283,SAN MATEO CREEK,2,N,PG,X,R,S,1888, ,600,149,0,139,149,0,0,57910,57910,1323,29,H,Y,157200,299.5227964,1025,7.1,MARINE WEST COAST FOREST,7,MARINE WEST COAST FOREST,7.1  MARINE WEST COAST FOREST,7  MARINE WEST COAST FOREST
STAID14150800,"WINBERRY CREEK NEAR LOWELL,OR",113.3,43.914292,-122.688676,14150800,USC00355050,LOOKOUT PT DAM,43.9139,-122.76,5.713407978,LOOKOUT POINT,OR00009,-122.75,43.91333,MIDDLE FORK-WILLAMETTE RIVER,20,N,RE,EIK,RSK,CHINRO,1953, ,3175,249,276,242,276,270000,477700,455840,477700,4360,991,H,Y,10500000,4629.1213,1323,7.1,MARINE WEST COAST FOREST,7,MARINE WEST COAST FOREST,7.1  MARINE WEST COAST FOREST,7  MARINE WEST COAST FOREST
STAID14182500,"LITTLE NORTH SANTIAM RIVER NEAR MEHAMA, OR",286.8,44.791511,-122.578974,14182500,USC00355092,LYONS 3N,44.7939,-122.595,1.292221229,HEATER DAM,OR01899,-122.6826806,44.80767222,SOUTH BRANCH VALENTINE CREEK,2,N,RE, , ,I,1959, ,385,25,28,20,28,25,32,32,32,5,0,S,NR,100,7920.952697,1323,7.1,MARINE WEST COAST FOREST,7,MARINE WEST COAST FOREST,7.1  MARINE WEST COAST FOREST,7  MARINE WEST COAST FOREST
STAID11467000,RUSSIAN R NR GUERNEVILLE CA,3465.2,38.508523,-122.927774,11467000,USW00023213,SANTA ROSA SONOMA CO AP,38.5039,-122.8103,10.2348643,AIRPORT RESERVOIR D,CA01445,-122.8526,38.505,OFFSTREAM,4,N,RE,X,S,CS,2002, ,2125,45,0,42,45,0,0,315,315,12,0,S,N,287200,6184.33829,1323,7.1,MARINE WEST COAST FOREST,7,MARINE WEST COAST FOREST,7.1  MARINE WEST COAST FOREST,7  MARINE WEST COAST FOREST
STAID14153500,"COAST FORK WILLAMETTE R BLW COTTAGE GROVE DAM, OR",275,43.720678,-123.049799,14153500,USC00351902,COTTAGE GROVE DAM,43.7178,-123.0578,0.718231343,COTTAGE GROVE,OR00005,-123.0533,43.715,COAST FORK WILLAMETTE RIVER,6,N,RE,EIK,RSK,CINRO,1942, ,2110,81,103,76,103,40800,50000,33000,50000,1158,104,H,Y,809000,684.4327396,1323,7.1,MARINE WEST COAST FOREST,7,MARINE WEST COAST FOREST,7.1  MARINE WEST COAST FOREST,7  MARINE WEST COAST FOREST
STAID14150000,"MIDDLE FORK WILLAMETTE RIVER NEAR DEXTER, OREG.",2605.2,43.945682,-122.837297,14150000,USC00355072,LOWELL,43.9167,-122.7833,5.392863661,DEXTER,OR00006,-122.8133,43.921669,MIDDLE FORK WILLAMETTE RIVER,20,N,RE,EIK,RSK,CHINR,1955, ,2765,65,117,60,117,270000,29900,22200,29900,1025,996,H,Y,794000,3225.650334,1323,7.1,MARINE WEST COAST FOREST,7,MARINE WEST COAST FOREST,7.1  MARINE WEST COAST FOREST,7  MARINE WEST COAST FOREST
STAID14151000,"FALL CREEK BLW WINBERRY CREEK, NEAR FALL CREEK, OR",481.1,43.944293,-122.774794,14151000,USC00355074,LOWELL 1 E,43.9167,-122.7667,3.13591905,FALL CREEK,OR00007,-122.7567,43.946671,FALL CREEK,13,N,ER,EIK,RSK,CINFRO,1965, ,5050,186,205,181,205,82400,125000,115000,125000,1860,184,H,Y,4973000,1391.369723,1323,7.1,MARINE WEST COAST FOREST,7,MARINE WEST COAST FOREST,7.1  MARINE WEST COAST FOREST,7  MARINE WEST COAST FOREST
STAID14155500,"ROW RIVER NEAR COTTAGE GROVE, OR",696.4,43.792901,-122.991466,14155500,USC00352374,DORENA,43.7822,-122.9631,2.56917617,DORENA,OR00008,-122.9533,43.779999,ROW RIVER,5,N,RE,EIK,RSK,CINRHO,1949, ,3302,135,154,129,154,97500,131000,77500,131000,1884,265,H,Y,3025000,3224.391674,1323,7.1,MARINE WEST COAST FOREST,7,MARINE WEST COAST FOREST,7.1  MARINE WEST COAST FOREST,7  MARINE WEST COAST FOREST
STAID14187200,"SOUTH SANTIAM RIVER NEAR FOSTER,OR",1444.9,44.412347,-122.688696,14187200,USC00353047,FOSTER DAM,44.4139,-122.6728,1.274340661,FOSTER,OR00012,-122.6633,44.41333,SOUTH SANTIAM RIVER,3,N,ER,EIK,RSK,CHINRO,1967, ,4800,125,126,123,126,195000,61000,56000,61000,1220,494,H,Y,1806000,1905.656108,1323,7.1,MARINE WEST COAST FOREST,7,MARINE WEST COAST FOREST,7.1  MARINE WEST COAST FOREST,7  MARINE WEST COAST FOREST
STAID14169000,"LONG TOM RIVER NEAR ALVADORE,OREG.",660.5,44.123457,-123.299817,14169000,USW00024221,EUGENE MAHLON SWEET AP,44.1278,-123.2206,6.341308139,FERN RIDGE,OR00016,-123.2917,44.115002,LONG TOM RIVER,12,N,RE,EHK,SK,CINFRO,1941, ,6610,46,49,40,49,45000,121000,102200,121000,9360,275,H,Y,121000,1121.581114,1323,7.1,MARINE WEST COAST FOREST,7,MARINE WEST COAST FOREST,7.1  MARINE WEST COAST FOREST,7  MARINE WEST COAST FOREST
STAID14211550,"JOHNSON CREEK AT MILWAUKIE, OR",137.3,45.452897,-122.64315,14211550,USC00356749,PORTLAND KGW-TV,45.5181,-122.6894,8.097279443,OSWEGO LAKE DAM,OR00237,-122.6679535,45.41025161,TUALATIN RIVER (OFFSTREAM),1,N,CN, , ,HR,1921, ,120,32,34,26,34,1400,7000,9800,9800,433,6,S,NR,100,5079.469955,1323,7.1,MARINE WEST COAST FOREST,7,MARINE WEST COAST FOREST,7.1  MARINE WEST COAST FOREST,7  MARINE WEST COAST FOREST
STAID14163900,"MCKENZIE RIVER NEAR WALTERVILLE, OR",2808.2,44.069849,-122.771187,14163900,USC00359001,WALTERVILLE 1 SW,44.0667,-122.8333,4.974845838,WALTERVILLE STORAGE POND,OR00267,-122.7417,44.0764,MCKENZIE RIVER,1,N,PGRE,HEZ,RZ,H,1951, ,3000,10,0,10,10,1400,345,345,345,65,0,H,Y,0,2337.156219,1323,7.1,MARINE WEST COAST FOREST,7,MARINE WEST COAST FOREST,7.1  MARINE WEST COAST FOREST,7  MARINE WEST COAST FOREST
STAID14205400,"EAST FORK DAIRY CREEK NEAR MEACHAM CORNER, OR",87.5,45.680669,-123.07122,14205400,USC00351222,BUXTON,45.6897,-123.1906,9.327746847,BUMP FARM RESERVOIR,OR00271,-123.0849762,45.71403121,"EAST DAIRY CREEK, TRIB TO",9,N,RE, , ,I,1956, ,400,38,38,36,38,130,97,89,97,8,0,L,NR,100,3841.858709,1323,7.1,MARINE WEST COAST FOREST,7,MARINE WEST COAST FOREST,7.1  MARINE WEST COAST FOREST,7  MARINE WEST COAST FOREST
STAID14203500,"TUALATIN RIVER NEAR DILLEY, OR",324.8,45.474837,-123.124274,14203500,USC00352997,FOREST GROVE,45.5247,-123.1025,5.798404432,GRAHAM,OR00440,-123.1360016,45.49161911,DILLEY CREEK,0,N,RE, , ,I,1961, ,550,32,34,28,34,82,220,180,220,15,1,L,NR,100,2054.057328,1323,7.1,MARINE WEST COAST FOREST,7,MARINE WEST COAST FOREST,7.1  MARINE WEST COAST FOREST,7  MARINE WEST COAST FOREST
STAID14189000,"SANTIAM RIVER AT JEFFERSON, OR",4606.4,44.715122,-123.012315,14189000,USC00350078,ALBANY 1 N,44.65,-123.1,10.02470182,HELMS RESERVOIR,OR00455,-122.9576263,44.69408035,"SOUTH SANTIAM RIVER, TRIB TO",0,N,RE, , ,I,1968, ,440,25,27,20,27,140,120,91,120,14,2,L,NR,100,4699.641567,1323,7.1,MARINE WEST COAST FOREST,7,MARINE WEST COAST FOREST,7.1  MARINE WEST COAST FOREST,7  MARINE WEST COAST FOREST
STAID14207500,"TUALATIN RIVER AT WEST LINN, OR",1832.9,45.350676,-122.676204,14207500,USC00359208,WEST LINN,45.3333,-122.65,2.815563973,HERSHISER RESERVOIR,OR00518,-122.6650583,45.33082222,"WILLAMETTE RIVER, TRIB TO",0,N,RE, , ,I,1972, ,420,42,42,38,42,120,38,33,38,3,0,L,NR,100,2355.554079,1323,7.1,MARINE WEST COAST FOREST,7,MARINE WEST COAST FOREST,7.1  MARINE WEST COAST FOREST,7  MARINE WEST COAST FOREST
STAID14210000,"CLACKAMAS RIVER AT ESTACADA, OR",1763.2,45.299843,-122.353975,14210000,USC00352693,ESTACADA 2 SE,45.2686,-122.3167,4.535806535,RIVER MILL,OR00552,-122.3469,45.2981,CLACKAMAS RIVER,15,N,CB, , ,HR,1911, ,936,85,85,70,85,150000,0,2300,2300,150,671,H,Y,0,558.0559358,1323,7.1,MARINE WEST COAST FOREST,7,MARINE WEST COAST FOREST,7.1  MARINE WEST COAST FOREST,7  MARINE WEST COAST FOREST
STAID14211010,"CLACKAMAS RIVER NEAR OREGON CITY, OR",2436.1,45.379287,-122.577313,14211010,USC00356334,OREGON CITY,45.3558,-122.6047,3.376101603,WILLAMETTE FALLS,OR00596,-122.6167,45.3514,WILLAMETTE RIVER,1,N,CNPG,HCK,RK,HN,1923,1996H,2950,20,0,0,20,400000,17000,17000,17000,1532,10000,S,Y,0,4246.408558,1323,7.1,MARINE WEST COAST FOREST,7,MARINE WEST COAST FOREST,7.1  MARINE WEST COAST FOREST,7  MARINE WEST COAST FOREST
STAID14211720,"WILLAMETTE RIVER AT PORTLAND, OR",28936.9,45.518452,-122.667874,14211720,USW00024274,PORTLAND RFC CITY,45.5333,-122.6667,1.653553402,PORTLAND #4 (WASHINGTON PARK),OR00669,-122.7025604,45.51758956,BULL RUN RIVER (OFFSTREAM),0,N,PG, , ,S,1894, ,100,60,60,45,60,30,54,54,54,4,0,H,Y,100,2551.003853,1323,7.1,MARINE WEST COAST FOREST,7,MARINE WEST COAST FOREST,7.1  MARINE WEST COAST FOREST,7  MARINE WEST COAST FOREST
STAID14211500,"JOHNSON CREEK AT SYCAMORE, OR",68.5,45.47762,-122.507869,14211500,USC00353522,GRESHAM 2 SW,45.4803,-122.4664,3.246904244,BINFORD DAM,OR00725,-122.4605713,45.48340988,HIENY CREEK,0,N,RE, , ,I,1958, ,318,25,25,22,25,400,30,30,30,3,1,S,NR,100,3539.566843,1323,7.1,MARINE WEST COAST FOREST,7,MARINE WEST COAST FOREST,7.1  MARINE WEST COAST FOREST,7  MARINE WEST COAST FOREST
STAID14197900,"WILLAMETTE RIVER AT NEWBERG, OR",21563,45.284563,-122.961489,14197900,USC00357127,REX 1 S,45.3033,-122.9133,4.306923032,DUNDEE SEWER PROJECT (LAGOON),OR00738,-122.9998169,45.27022171,MUNICIPAL WASTE,0,N,RE, , ,O,1979, ,4400,37,37,34,37,186,65,47,65,10,0,L,NR,100,3246.673969,1323,7.1,MARINE WEST COAST FOREST,7,MARINE WEST COAST FOREST,7.1  MARINE WEST COAST FOREST,7  MARINE WEST COAST FOREST
STAID14157500,"COAST FORK WILLAMETTE RIVER NEAR GOSHEN, OR",1664,43.980403,-122.96647,14157500,USC00352706,EUGENE,44.05,-123.0833,12.13142212,"WEYERHAEUSER EAST BASIN, CELL 1 AND 2",OR00744,-122.9496384,44.05765151,MCKENZIE RIVER,1,N,RE, , ,O,1954, ,1100,16,16,12,16,70,585,560,585,18,0,L,NR,100,8676.057178,1323,7.1,MARINE WEST COAST FOREST,7,MARINE WEST COAST FOREST,7.1  MARINE WEST COAST FOREST,7  MARINE WEST COAST FOREST
STAID14164900,"McKENZIE RIVER ABV HAYDEN BR, AT SPRINGFIELD,OR",2960.3,44.071237,-122.964527,14164900,USC00352706,EUGENE,44.05,-123.0833,9.779951794,"WEYERHAEUSER EAST BASIN, CELL 1 AND 2",OR00744,-122.9496384,44.05765151,MCKENZIE RIVER,1,N,RE, , ,O,1954, ,1100,16,16,12,16,70,585,560,585,18,0,L,NR,100,1881.423315,1323,7.1,MARINE WEST COAST FOREST,7,MARINE WEST COAST FOREST,7.1  MARINE WEST COAST FOREST,7  MARINE WEST COAST FOREST
STAID14191000,"WILLAMETTE RIVER AT SALEM, OR",18821.8,44.944286,-123.042874,14191000,USC00358988,WALLACE ORCHARDS,44.9667,-123.05,2.554621532,BERGER LAKE,OR01158,-123.0477676,44.90243148,PRINGLE CREEK,0,N,RE, , ,FI,1953, ,359,14,14,13,14,17,45,45,45,6,2,S,NR,100,4665.989061,1323,7.1,MARINE WEST COAST FOREST,7,MARINE WEST COAST FOREST,7.1  MARINE WEST COAST FOREST,7  MARINE WEST COAST FOREST
STAID14183000,"NORTH SANTIAM RIVER AT MEHAMA, OR",1696.2,44.788733,-122.617863,14183000,USC00355092,LYONS 3N,44.7939,-122.595,1.8934511,HEATER DAM,OR01899,-122.6826806,44.80767222,SOUTH BRANCH VALENTINE CREEK,2,N,RE, , ,I,1959, ,385,25,28,20,28,25,32,32,32,5,0,S,NR,100,5260.637803,1323,7.1,MARINE WEST COAST FOREST,7,MARINE WEST COAST FOREST,7.1  MARINE WEST COAST FOREST,7  MARINE WEST COAST FOREST
STAID14202000,"PUDDING RIVER AT AURORA, OR",1261.5,45.233176,-122.750093,14202000,USW00094281,AURORA STATE AP,45.2486,-122.7686,2.245240914,LAKEWOOD ESTATES,OR03731,-122.7884216,45.20449066,UNNAMED TRIB/MILL CREEK,0,N,RE, , , ,1969, ,0,30,0,0,30,0,0,78,78,0,0,L,NR,100,4263.974848,1323,7.1,MARINE WEST COAST FOREST,7,MARINE WEST COAST FOREST,7.1  MARINE WEST COAST FOREST,7  MARINE WEST COAST FOREST
STAID14201300,"ZOLLNER CREEK NEAR MT ANGEL, OR",38.9,45.100398,-122.82176,14201300,USC00355770,MT ANGEL,45.0667,-122.75,6.766277094,WOODBURN NURSERY,OR03862,-122.811821,45.09830093,"UNNAMED, TRIB/ZOLLNER CREEK",0,N, , , ,O,0, ,0,33,0,0,33,0,0,40,40,0,0,L,NR,100,773.0548451,1323,7.1,MARINE WEST COAST FOREST,7,MARINE WEST COAST FOREST,7.1  MARINE WEST COAST FOREST,7  MARINE WEST COAST FOREST
STAID12148500,"TOLT RIVER NEAR CARNATION, WA",210.2,47.695657,-121.824006,12148500,USC00458508,TOLT S FK RSVR,47.7,-121.6908,9.980651853,REGULATING BASIN SOUTH DAM,WA00238,-121.8067,47.7064,NORTH & SOUTH FORK TOLT RIVER,11,N,RE,FEK,SK,HS,1962, ,250,35,35,29,35,0,882,0,882,0,250,H,Y,0,1712.122869,1323,7.1,MARINE WEST COAST FOREST,7,MARINE WEST COAST FOREST,7.1  MARINE WEST COAST FOREST,7  MARINE WEST COAST FOREST
STAID12117600,"CEDAR RIVER BELOW DIVERSION NEAR LANDSBURG, WA",345.9,47.379546,-121.983448,12117600,USC00454486,LANDSBURG,47.3767,-121.9614,1.690028765,RAVENSDALE PIT,WA00339,-121.9961835,47.34728531,TR-GREEN RIVER,0,N,RE,HEK,SZ,O,1972, ,2950,18,18,18,18,0,165,120,165,17,1,L,N,0,3700.082707,1323,7.1,MARINE WEST COAST FOREST,7,MARINE WEST COAST FOREST,7.1  MARINE WEST COAST FOREST,7  MARINE WEST COAST FOREST
STAID12138160,"SULTAN RIVER BELOW POWERPLANT NEAR SULTAN, WA",243.5,47.907324,-121.815399,12138160,USC00458034,STARTUP 1 E,47.8664,-121.7175,8.602200306,EVERETT WASHWATER STORAGE POND DAM,WA00448,-121.817883,47.930856,CHAPLAIN CREEK-OFFSTREAM,7,N,RE,HEZ,U,OS,1985, ,1800,16,20,16,20,100,62,55,62,4,0,L,N,0,2621.660601,1323,7.1,MARINE WEST COAST FOREST,7,MARINE WEST COAST FOREST,7.1  MARINE WEST COAST FOREST,7  MARINE WEST COAST FOREST
STAID04170000,"HURON RIVER AT MILFORD, MI",385.2,42.578921,-83.626608,4170000,USC00203796,HIGHLAND,42.6167,-83.6,4.731855568,FORD DAM #3 (HUBBELL POND),MI00248,-83.61666667,42.585,HURON RIVER,16,N,PG, , ,O,1939, ,200,25,25,25,25,1350,1200,800,1200,77,132,S,Y,0,1021.260416,1412,8.1,MIXED WOOD PLAINS,8,EASTERN TEMPERATE FORESTS,8.1  MIXED WOOD PLAINS,8  EASTERN TEMPERATE FORESTS
STAID04161540,"PAINT CREEK AT ROCHESTER, MI",186,42.688366,-83.142989,4161540,USC00207521,SHELBY 1SSW,42.6844,-83.0808,5.102217257,WINKLER POND DAM,MI00277,-83.10166667,42.70833333,STONY CREEK,2,N,PGRE, , ,R,1917, ,320,13,13,13,13,1113,200,140,200,18,68,S,Y,0,3877.345193,1412,8.1,MIXED WOOD PLAINS,8,EASTERN TEMPERATE FORESTS,8.1  MIXED WOOD PLAINS,8  EASTERN TEMPERATE FORESTS
STAID04101500,"ST. JOSEPH RIVER AT NILES, MI",9623.4,41.829214,-86.259732,4101500,USC00205892,NILES,41.8406,-86.2658,1.36222268,FRENCH PAPER COMPANY DAM,MI00536,-86.26,41.81833333,SAINT JOSEPH RIVER,0,N,PGRE, , ,H,1887, ,1000,22,22,22,22,31000,1600,510,1600,80,3666,L,NR,0,1209.567779,1412,8.1,MIXED WOOD PLAINS,8,EASTERN TEMPERATE FORESTS,8.1  MIXED WOOD PLAINS,8  EASTERN TEMPERATE FORESTS
STAID05412500,"Turkey River at Garber, IA",3858.2,42.739988,-91.261799,5412500,USC00133517,GUTTENBERG L&D 10,42.7858,-91.0958,14.47729759,CAMP KLAUS DAM,IA01863,-91.25009918,42.6609993,BROWNFIELD CREEK,0,N,RE,HZ,SZ,R,1978, ,600,50,0,0,50,0,325,163,325,12,1,L,NR,0,8821.607766,1469,8.1,MIXED WOOD PLAINS,8,EASTERN TEMPERATE FORESTS,8.1  MIXED WOOD PLAINS,8  EASTERN TEMPERATE FORESTS
STAID05408000,"KICKAPOO RIVER AT LA FARGE, WI",689.3,43.57414,-90.643186,5408000,USC00471282,CASHTON 2 S,43.7167,-90.7667,18.70975831,PAVLOVIC,WI01206,-90.6076048,43.5112896,CAMP CR TRIB - UNNAMED,0, ,RE,X,U,O,1994, ,275,25,25,16,25,0,30,12,30,2,0,H,N,0,7488.406704,1469,8.1,MIXED WOOD PLAINS,8,EASTERN TEMPERATE FORESTS,8.1  MIXED WOOD PLAINS,8  EASTERN TEMPERATE FORESTS
STAID05330000,"MINNESOTA RIVER NEAR JORDAN, MN",42040.8,44.693018,-93.641902,5330000,USC00214176,JORDAN 1SSW,44.65,-93.6356,4.809271993,JORDAN MILL POND,MN00535,-93.62975,44.66261,SAND CREEK,0,N,PG,X,U,R,2000, ,80,24,28,0,28,0,100,65,100,16,236,S,NR,0,3499.436383,1469,8.1,MIXED WOOD PLAINS,8,EASTERN TEMPERATE FORESTS,8.1  MIXED WOOD PLAINS,8  EASTERN TEMPERATE FORESTS
STAID05267000,"MISSISSIPPI RIVER NEAR ROYALTON, MN",30119.2,45.861077,-94.358612,5267000,USC00210826,BLANCHARD PWR STN,45.8667,-94.35,0.914123135,BLANCHARD,MN00599,-94.3583,45.86,MISSISSIPPI RIVER,28,N,CNPGRE, , ,HR,1925, ,4451,46,0,0,46,72000,16358,16128,16358,1152,11600,L,Y,0,122.8514307,1469,8.1,MIXED WOOD PLAINS,8,EASTERN TEMPERATE FORESTS,8.1  MIXED WOOD PLAINS,8  EASTERN TEMPERATE FORESTS
STAID05340500,"ST. CROIX RIVER AT ST. CROIX FALLS, WI",15925.6,45.406906,-92.647151,5340500,USC00477464,ST CROIX FALLS,45.4117,-92.6467,0.534229814,SAINT CROIX FALLS,WI00023,-92.64715,45.412,ST. CROIX RIVER,0, ,OTVA,X,U,HR,1905, ,1760,60,60,56,60,87000,14400,8900,14400,413,6240,H,Y,0,565.2461139,1469,8.1,MIXED WOOD PLAINS,8,EASTERN TEMPERATE FORESTS,8.1  MIXED WOOD PLAINS,8  EASTERN TEMPERATE FORESTS
STAID05407000,"WISCONSIN RIVER AT MUSCODA, WI",27400.9,43.198042,-90.443459,5407000,USC00475718,MUSCODA,43.1772,-90.4272,2.666182128,SCHOLTEN,WI00510,-90.3619145,43.2305617,TR WISCONSIN,0,N,RE,X,U,PR,1964, ,428,30,30,30,30,164,30,6,30,1,0,L,N,12650,7197.403704,1469,8.1,MIXED WOOD PLAINS,8,EASTERN TEMPERATE FORESTS,8.1  MIXED WOOD PLAINS,8  EASTERN TEMPERATE FORESTS
STAID04071765,"OCONTO RIVER NEAR OCONTO, WI",2502.9,44.860546,-87.983993,4071765,USC00476208,OCONTO 4 W,44.8919,-87.955,4.168232317,STILES,WI00762,-88.0536,44.8579,OCONTO RIVER,0,N,RE,HEK,SK,HR,1949, ,2600,29,0,0,29,15800,2400,2300,2400,463,796,H,Y,0,5181.695685,1469,8.1,MIXED WOOD PLAINS,8,EASTERN TEMPERATE FORESTS,8.1  MIXED WOOD PLAINS,8  EASTERN TEMPERATE FORESTS
STAID04081000,"WAUPACA RIVER NEAR WAUPACA, WI",710.2,44.32915,-88.99595,4081000,USC00478951,WAUPACA,44.3547,-89.0594,5.790671854,WEYAUWEGA,WI00813,-88.9336467,44.3246383,WAUPACA,0, ,PGRE,X,U,HR,1931, ,240,21,21,12,21,5000,1760,1259,1760,251,314,L,N,0,4698.814262,1469,8.1,MIXED WOOD PLAINS,8,EASTERN TEMPERATE FORESTS,8.1  MIXED WOOD PLAINS,8  EASTERN TEMPERATE FORESTS
STAID05382255,"STILLWELL CREEK AT 16TH COURT NEAR TOMAH, WI",9.6,43.993854,-90.657356,5382255,USC00477997,SPARTA,43.9364,-90.8164,14.2421682,STILLWELL,WI82301,-90.6465443,43.99039046,STILLWELL CREEK,3,N,RE,EZ,S,R,1944, ,240,0,0,12,12,0,61,27,61,4,0,L,Y,0,902.2036652,1469,8.1,MIXED WOOD PLAINS,8,EASTERN TEMPERATE FORESTS,8.1  MIXED WOOD PLAINS,8  EASTERN TEMPERATE FORESTS
STAID05382267,"LA CROSSE RIVER @ CNTY TRUNK HIGHWY BB NR TOMAH,WI",167.9,44.000243,-90.724579,5382267,USC00477997,SPARTA,43.9364,-90.8164,10.21738808,SUUKJAK SEP,WI82302,-90.70885076,44.0232015,SQUAW CREEK,1,N,RE,AZ,S,R,1961,2011,400,24,0,24,24,2000,315,134,315,14,12,S,Y,0,2812.328319,1469,8.1,MIXED WOOD PLAINS,8,EASTERN TEMPERATE FORESTS,8.1  MIXED WOOD PLAINS,8  EASTERN TEMPERATE FORESTS
STAID05382257,"STILLWELL CREEK AT YARD ROAD NEAR TOMAH, WI",12.5,44.00052,-90.68125,5382257,USC00477997,SPARTA,43.9364,-90.8164,12.95452249,EAST SPARTA,WI82306,-90.64767997,43.9987271,SPARTA CREEK,1,N,RE,EZ,R,R,1945,2005,210,12,12,11,12,0,61,25,61,4,0,S,Y,0,2538.875495,1469,8.1,MIXED WOOD PLAINS,8,EASTERN TEMPERATE FORESTS,8.1  MIXED WOOD PLAINS,8  EASTERN TEMPERATE FORESTS
STAID01420500,BEAVER KILL AT COOKS FALLS NY,627,41.946477,-74.979609,1420500,USC00301102,CALLICOON CTR,41.8275,-74.9506,13.44581582,LAKE MUSKODAY DAM,NY00341,-74.99555556,41.91277778,TROUT BROOK,0, ,RE, , ,R,1925, ,155,17,0,0,17,189,370,240,370,50,4,L,NR,0,3944.673329,1552,8.1,MIXED WOOD PLAINS,8,EASTERN TEMPERATE FORESTS,8.1  MIXED WOOD PLAINS,8  EASTERN TEMPERATE FORESTS
STAID01425000,WEST BR DELAWARE RIVER AT STILESVILLE NY,1180.6,42.074806,-75.396009,1425000,USC00302060,DEPOSIT,42.0628,-75.4264,2.841719461,CANNONSVILLE,NY00542,-75.374,42.065,WEST BRANCH DELAWARE RIVER,0,N, ,K,K,HS,1964, ,2800,175,0,0,175,200000,434300,300000,434300,4800,456,H,Y,0,2028.814454,1552,8.1,MIXED WOOD PLAINS,8,EASTERN TEMPERATE FORESTS,8.1  MIXED WOOD PLAINS,8  EASTERN TEMPERATE FORESTS
STAID01372058,HUDSON RIVER BELOW POUGHKEEPSIE NY,30781.6,41.650927,-73.944582,1372058,USC00306817,POUGHKEEPSIE,41.6833,-73.9333,3.719699255,COBALT LAKE DAM,NY01234,-73.94166667,41.61833333,CASPER CREEK,0, ,RE, , ,O,1953, ,1031,36,0,0,36,560,256,256,256,38,14,L,NR,0,3628.181175,1552,8.1,MIXED WOOD PLAINS,8,EASTERN TEMPERATE FORESTS,8.1  MIXED WOOD PLAINS,8  EASTERN TEMPERATE FORESTS
STAID01427510,DELAWARE RIVER AT CALLICOON NY,4725,41.756755,-75.05739,1427510,USC00301101,CALLICOON,41.7667,-75.05,1.264345974,HOWARD STEWART DAM,NY01560,-75.04833333,41.79305556,TR-CALKINS CREEK,0, ,RE, , ,R,0, ,320,10,0,0,10,270,61,12,61,6,0,L,NR,0,4092.535633,1552,8.1,MIXED WOOD PLAINS,8,EASTERN TEMPERATE FORESTS,8.1  MIXED WOOD PLAINS,8  EASTERN TEMPERATE FORESTS
STAID01503000,SUSQUEHANNA RIVER AT CONKLIN NY,5790.8,42.035355,-75.802968,1503000,USC00363604,HALLSTEAD,41.9667,-75.75,8.799795228,CONKLIN PLAYERS CLUB DAM,NY01619,-75.80583333,42.02388889,TR-SUSQUEHANNA RIVER,0, ,RE, , ,O,1990, ,640,20,0,0,20,135,123,100,123,10,0,S,N,0,1293.835773,1552,8.1,MIXED WOOD PLAINS,8,EASTERN TEMPERATE FORESTS,8.1  MIXED WOOD PLAINS,8  EASTERN TEMPERATE FORESTS
STAID03092460,West Branch Mahoning River at Wayland OH,209,41.157001,-81.071762,3092460,USC00330195,APCO RAVENNA ARSENAL,41.1667,-81.0833,1.447775541,MICHAEL J KIRWAN DAM AND RESERVOIR,OH00030,-81.080002,41.154999,WEST BRANCH OF THE MAHONING,1,N,RE,EHK,SK,CO,1966, ,9900,0,83,77,83,38500,124000,56700,124000,2650,81,H,Y,3432192,686.7454564,1552,8.1,MIXED WOOD PLAINS,8,EASTERN TEMPERATE FORESTS,8.1  MIXED WOOD PLAINS,8  EASTERN TEMPERATE FORESTS
